codigoStr;longitude;nome;latitude
3869117960025100001;-38.69611111;ABROLHOS (A) - BA;-17.96416667
4013102880016000001;-40.13333333;ACARAU (C) - CE;-2.88333333
4008103120076100001;-40.08694444;ACARAÚ (A) - CE;-3.12083333
5221114010432100001;-52.21222222;ÁGUA BOA (A) - MT;-14.01611111
3790109280605000001;-37.9;AGUA BRANCA (C) - AL;-9.28333333
4762115591200100001;-47.62583333;AGUAS EMENDADAS (A) - GO;-15.59638889
4143115680740100001;-41.44;ÁGUAS VERMELHAS (A) - MG;-15.69
4106119470083100001;-41.06;AIMORES (A) - MG;-19.48
4106119480082000001;-41.06666667;AIMORES (C) - MG;-19.48333333
3854112280130000001;-38.55;ALAGOINHAS (C) - BA;-12.28333333
4148120750138100001;-41.48888889;ALEGRE (A) - ES;-20.75055556
5552129710121100001;-55.52611111;ALEGRETE (A) - RS;-29.71166667
4074120630035100001;-40.74138889;ALFREDO CHAVES (A) - ES;-20.63638889
4068116280208100001;-40.68305556;ALMENARA (A) - MG;-16.28305556
5610109840289100001;-56.1;ALTA FLORESTA (A) - MT;-9.84944444
5221103210074000001;-52.21666666;ALTAMIRA (C) - PA;-3.21666666
4326122950347000001;-43.26666666;ALTO DA BOA VISTA (C) - RJ;-22.95
4752114131260100001;-47.52305556;ALTO PARAISO DE GOIAS (A) - GO;-14.13305556
4593109100285000001;-45.93333333;ALTO PARNAIBA (C) - MA;-9.1
4593109100281100001;-45.93194444;ALTO PARNAÍBA (A) - MA;-9.10805556
5328117810875100001;-53.2875;ALTO TAQUARI (A) - MT;-17.81555556
4386108440270100001;-43.86472222;ALVORADA DO GURGUÉIA (A) - PI;-8.44305556
5532123000431100001;-55.32944444;AMAMBAI (A) - MS;-23.0025
3961113000407100001;-39.61694444;AMARGOSA (A) - BA;-13.00944444
4431123010003000001;-44.31666666;ANGRA DOS REIS (C) - RJ;-23.01666666
5739109560220100001;-57.39361111;APIACAS (A) - MT;-9.56388889
3779105660150100001;-37.79653333;APODI (A) - RN;-5.66951111
3781105610150000001;-37.81666666;APODI (C) - RN;-5.61666666
5988107200168100001;-59.88888889;APUI (A) - AM;-7.20527778
5578120470155100001;-55.78388889;AQUIDAUANA (A) - MS;-20.47555556
3704110940004000001;-37.05;ARACAJU (C) - SE;-10.95
3704110950004100001;-37.05;ARACAJÚ (A) - SE;-10.95027778
4204116830289000001;-42.05;ARACUAI (C) - MG;-16.83333333
5223115890345000001;-52.23333333;ARAGARCAS (C) - GO;-15.9
5224115900347100001;-52.24388889;ARAGARÇAS (A) - GO;-15.90583333
4820107190228000001;-48.2;ARAGUAINA (C) - TO;-7.2
4820107100226100001;-48.20111111;ARAGUAÍNA (A) - TO;-7.10416667
4811105640117100001;-48.11166667;ARAGUATINS (A) - TO;-5.64361111
3661109800241100001;-36.61888889;ARAPIRACA (A) - AL;-9.80416667
4949128950012100001;-49.49135556;ARARANGUA (A) - SC;-28.95589722
4693119601023000001;-46.93333333;ARAXA (C) - MG;-19.6
4693119601020100001;-46.93333333;ARAXÁ (A) - MG;-19.6
3708108410680000001;-37.08333333;ARCOVERDE (C) - PE;-8.41666666
3704108430680100001;-37.05;ARCO VERDE (A) - PE;-8.43333333
3568106960574000001;-35.68333333;AREIA (C) - PB;-6.96666667
3568106960574100001;-35.68333333;AREIA (A) - PB;-6.96694444
3815112760010100001;-38.15;AREMBEPE (A) - BA;-12.76333333
4604115890519000001;-46.05;ARINOS (C) - MG;-15.9
6296109940140100001;-62.96194444;ARIQUEMES (A) - RO;-9.94888889
4884121130525100001;-48.84027778;ARIRANHA (A) - SP;-21.13277778
2931100900015100001;-29.31666666;ARQ.SÃO PEDRO E SÃO PAULO (A) - RN;0.9
4200122960004100001;-42.0;ARRAIAL DO CABO (A) - RJ;-22.96666667
5912103580028100001;-59.12944444;AUTAZES (A) - AM;-3.58305556
4889123080654100001;-48.89861111;AVARÉ (A) - SP;-23.08277778
4890123080854000001;-48.9;AVARÉ (C) - SP;-23.08333333
4341122350507000001;-43.41666667;AVELAR (P.DO ALFERES) (C) - RJ;-22.35
4476104210025000001;-44.76666667;BACABAL (C) - MA;-4.21666667
4479104240028100001;-44.795;BACABAL (A) - MA;-4.24305556
5409131330242000001;-54.1;BAGE (C) - RS;-31.33333333
5401131340230100001;-54.01333333;BAGÉ (A) - RS;-31.34777778
4602107450254100001;-46.0275;BALSAS (A) - MA;-7.45527778
4603107530259000001;-46.03333333;BALSAS (C) - MA;-7.53333333
4600120030661000001;-46.0;BAMBUI (C) - MG;-20.03333333
4376121251126000001;-43.76666667;BARBACENA (C) - MG;-21.25
4376121211155100001;-43.76666667;BARBACENA (A) - MG;-21.21666667
3929107310409000001;-39.3;BARBALHA (C) - CE;-7.31666667
3927107300409100001;-39.27055556;BARBALHA (A) - CE;-7.30055556
6291100960040000001;-62.91666667;BARCELOS (C) - AM;-0.96666667
6292100980017100001;-62.92416667;BARCELOS (A) - AM;-0.98777778
4316111080401000001;-43.16666667;BARRA (C) - BA;-11.08333333
4313111080403100001;-43.13916667;BARRA (A) - BA;-11.08472222
4855122330544100001;-48.5575;BARRA BONITA (A) - SP;-22.33777778
4523105500153000001;-45.23333333;BARRA DO CORDA (C) - MA;-5.5
4523105500153100001;-45.23694444;BARRA DO CORDA (A) - MA;-5.50666667
4841124960667100001;-48.41638889;BARRA DO TURVO (A) - SP;-24.96305556
4500112140439000001;-45.0;BARREIRAS (C) - BA;-12.1499996185303
4501112140470100001;-45.01666667;BARREIRAS (A) - BA;-12.15
4970122290550100001;-49.7;BAURU (A) - SP;-22.3
4843101430010000001;-48.43333333;BELEM (C) - PA;-1.43333333
4843101410024100001;-48.43833333;BELÉM (A) - PA;-1.41027778
3921116080088100001;-39.21555556;BELMONTE (A) - BA;-16.08805556
4393119930915000001;-43.93333333;BELO HORIZONTE (C) - MG;-19.93333333
4396119880869100001;-43.96666666;BELO HORIZONTE (PAMPULHA) (A) - MG;-19.88333333
5495102630175000001;-54.95;BELTERRA (C) - PA;-2.63333333
7003104380065000001;-70.03333333;BENJAMIN CONSTANT (C) - AM;-4.38333333
5151129140640000001;-51.51666666;BENTO GONCALVES (C) - RS;-29.15
5153129160640100001;-51.53472221;BENTO GONÇALVES (A) - RS;-29.16722221
4026118530100000001;-40.26666667;BOA ESPERANCA (C) - ES;-18.53333333
6065002810090000001;-60.65;BOA VISTA (C) - RR;2.81666667
6733108770111100001;-67.33222222;BOCA DO ACRE (A) - AM;-8.77666667
4536119710695000001;-45.36666666;BOM DESPACHO (C) - MG;-19.71666666
5043128661047000001;-50.43333333;BOM JESUS (C) - RS;-28.66666667
4341113260439000001;-43.41666667;BOM JESUS DA LAPA (C) - BA;-13.26666667
4318113410440100001;-43.18416667;BOM JESUS DA LAPA (A) - BA;-13.41666667
4411109100331000001;-44.11666666;BOM JESUS DO PIAUI (C) - PI;-9.1
4432109080331100001;-44.32638889;BOM JESUS DO PIAUI (A) - PI;-9.08333333
4678101070033100001;-46.78277778;BRAGANÇA (A) - PA;-1.07861111
4792115781159100001;-47.92555556;BRASILIA (A) - DF;-15.78944444
4793115781159000001;-47.93333333;BRASILIA (C) - DF;-15.78333333
3647110420010100001;-36.47016667;BREJO GRANDE (A) - SE;-10.42967222
5048101680014000001;-50.48333333;BREVES (C) - PA;-1.68333333
4133114190470100001;-41.33888889;BRUMADO (A) - BA;-14.19833333
4644104320175100001;-46.44972222;BURITICUPÚ (A) - MA;-4.32055556
4365110720502100001;-43.65111111;BURITIRAMA (A) - BA;-10.72305556
4643115520894100001;-46.43555556;BURITIS (A) - MG;-15.52416667
3628107480436100001;-36.28638889;CABACEIRAS (A) - PB;-7.48333333
3933108510341000001;-39.33333333;CABROBO (C) - PE;-8.51666666
3931108500342100001;-39.31444444;CABROBÓ (A) - PE;-8.50361111
5083126810952100001;-50.83527778;CAÇADOR (A) - SC;-26.81944444
5346130540420100001;-53.4675;CAÇAPAVA DO SUL (A) - RS;-30.54777778
5768116040118000001;-57.68333333;CACERES (C) - MT;-16.05
5769116070116100001;-57.69277777;CÁCERES (A) - MT;-16.07444443
6143111440210100001;-61.43416667;CACOAL (A) - RO;-11.44583333
4248114060882000001;-42.48333333;CAETITE (C) - BA;-14.06666667
5181116960737100001;-51.8175;CAIAPÔNIA (A) - GO;-16.96666667
3708106450169100001;-37.08888889;CAICÓ (A) - RN;-6.45972222
3545105150017100001;-35.45416667;CALCANHAR (A) - RN;-5.16
4638121911150100001;-46.38277778;CALDAS (A) - MG;-21.91777778
4638121911150000001;-46.38333333;CALDAS(P. DE CALDAS) (C) - MG;-21.91666666
4179104280160000001;-41.8;CALDEIRAO (C) - PI;-4.28333333
5183130810090100001;-51.83472222;CAMAQUÃ (A) - RS;-30.81055556
3513106610136100001;-35.13472222;CAMARATUBA (A) - PB;-6.61083333
5013129040905000001;-50.13333333;CAMBARA DO SUL (C) - RS;-29.05
4195121560035100001;-41.95;CAMBUCÍ (A) - RJ;-21.56666667
4950102250023000001;-49.5;CAMETA (C) - PA;-2.25
4949102240022100001;-49.49305556;CAMETÁ (A) - PA;-2.24861111
3588107210547000001;-35.88333333;CAMPINA GRANDE (C) - PB;-7.21666667
3588107220547100001;-35.88888889;CAMPINA GRANDE (A) - PB;-7.22583333
4713123000661000001;-47.13333333;CAMPINAS (C) - SP;-23.0
4953119530555100001;-49.53333333;CAMPINA VERDE (A) - MG;-19.53333333
5104129680025000001;-51.05;CAMPO BOM (C) - RS;-29.68333333
5461120450530000001;-54.6166648864746;CAMPO GRANDE (C) - MS;-20.4500007629395
5459120450530100001;-54.6;CAMPO GRANDE (A) - MS;-20.45
5236124040616000001;-52.36666666;CAMPO MOURAO (C) - PR;-24.05
5783113780570100001;-57.83333333;CAMPO NOVO DOS PARECIS (A) - MT;-13.78333333
4133121750011000001;-41.33333333;CAMPOS (C) - RJ;-21.75
4134121700025100001;-41.35;CAMPOS (A) - RJ;-21.7
4559122751642000001;-45.6;CAMPOS DO JORDAO (C) - SP;-22.75
4560122751642100001;-45.60388889;CAMPOS DO JORDÃO (A) - SP;-22.75027778
5120127380946000001;-51.2;CAMPOS NOVOS (C) - SC;-27.38333333
4038107000583000001;-40.38333333;CAMPOS SALES (C) - CE;-7.0
4036107070572100001;-40.36305556;CAMPOS SALES (A) - CE;-7.07805556
5513115520749100001;-55.13555556;CAMPO VERDE (A) - MT;-15.5275
5250113500430000001;-52.5;CANARANA (C) - MT;-13.5
3895115660003000001;-38.95;CANAVIEIRAS (C) - BA;-15.66666667
5082129360830100001;-50.82744444;CANELA (A) - RS;-29.36879722
5270131390464100001;-52.7;CANGUÇU (A) - RS;-31.4
4297108110308100001;-42.97555554;CANTO DO BURITI (A) - PI;-8.11777777
4190120510843000001;-41.9;CAPARAÓ (C) - MG;-20.51666666
4238117700932100001;-42.38916667;CAPELINHA (A) - MG;-17.70527778
4954118710620000001;-49.55;CAPINOPOLIS (C) - MG;-18.71666667
470511734081100001;-47.0575;CAPITÃO POÇO (A) - PA;-1.73472221
6113001830094000001;-61.13333333;CARACARAI (C) - RR;1.83333333
4332109280523100001;-43.32444444;CARACOL (A) - PI;-9.28611111
4333109280522000001;-43.33333333;CARACOL (C) - PI;-9.28333333
4200120710399100001;-42.0;CARANGOLA (A) - MG;-20.71666667
4213119730615100001;-42.13722222;CARATINGA (A) - MG;-19.73583333
4215119790609000001;-42.15;CARATINGA (C) - MG;-19.8
3926117730002100001;-39.26666667;CARAVELAS (A) - BA;-17.73333333
3925117730002000001;-39.25;CARAVELAS (C) - BA;-17.73333333
4300117530736000001;-43.0;CARBONITA (C) - MG;-17.53333333
4376114280450000001;-43.76666666;CARINHANHA (C) - BA;-14.28333333
3774110390308100001;-37.74666667;CARIRA (A) - SE;-10.39888889
5579110002900100001;-55.79053333;CARLINDA (A) - MT;-10.00515
4259121930342000001;-42.6;CARMO (C) - RJ;-21.93333333
4745107330192100001;-47.45972222;CAROLINA (A) - MA;-7.33722222
4746107330192000001;-47.46666667;CAROLINA (C) - MA;-7.33333333
3596108290550100001;-35.96638889;CARUARU (A) - PE;-8.29527778
4707121770730100001;-47.075;CASA BRANCA (A) - SP;-21.77972222
5172119120516100001;-51.72083333;CASSILANDIA (A) - MS;-19.1225
4793101300065100001;-47.93083333;CASTANHAL (A) - PA;-1.30083333
4151105340286100001;-41.51194444;CASTELO DO PIAUÍ (A) - PI;-5.34861111
4999124781007100001;-49.99972222;CASTRO (A) - PR;-24.78944444
5000124781008000001;-50.0;CASTRO (C) - PR;-24.78333333
4795118180840000001;-47.95;CATALAO (C) - GO;-18.18333333
4792118150890100001;-47.92638889;CATALÃO (A) - GO;-18.15777778
4893121110570000001;-48.93333333;CATANDUVA (C) - SP;-21.11666666
4334104860103000001;-43.35;CAXIAS (C) - MA;-4.86666667
4334104820076100001;-43.34361111;CAXIAS (A) - MA;-4.82138889
5120129160759000001;-51.2;CAXIAS DO SUL (C) - RS;-29.16666667
4343119010652000001;-43.43333333;C. DO MATO DENTRO (C) - MG;-19.01666666
3565105650061000001;-35.65;CEARA MIRIM (C) - RN;-5.65
4561115300880100001;-45.61722222;CHAPADA GAÚCHA (A) - MG;-15.30055556
5260118800818100001;-52.60277778;CHAPADÃO DO SUL (A) - MS;-18.80222222
4335103740091100001;-43.35194444;CHAPADINHA (A) - MA;-3.74277778
4334103730103000001;-43.35;CHAPADINHA (C) - MA;-3.73333333
5263127080687000001;-52.63555555;CHAPECÓ (C) - SC;-27.08527777
5337133740026100001;-53.35694444;CHUÍ (A) - RS;-33.75
5293123370381100001;-52.93194444;CIDADE GAÚCHA (A) - PR;-23.37583333
3851111080145000001;-38.51666667;CIPO (C) - BA;-11.08333333
5234126410980100001;-52.34888889;CLEVELANDIA (A) - PR;-26.41722222
6313104080046000001;-63.13333333;COARI (C) - AM;-4.08333333
6314104090043100001;-63.145;COARI (A) - AM;-4.09777778
6208103830048000001;-62.08333333;CODAJAS (C) - AM;-3.83333333
4423106030179000001;-44.25;COLINAS (C) - MA;-6.03333333
4423106030179100001;-44.23333333;COLINAS (A) - MA;-6.03333333
5976113700591100001;-59.76277778;COMODORO (A) - MT;-13.70861111
4815119980568100001;-48.15;CONCEIÇÃO DAS ALAGOAS (A) - MG;-19.98333333
4926108260156000001;-49.26666666;CONCEICAO DO ARAGUAIA (C) - PA;-8.26666666
4927108250180100001;-49.27416667;CONCEIÇÃO DO ARAGUAIA (A) - PA;-8.25916667
3761111810014100001;-37.61611111;CONDE (A) - BA;-11.81166667
5156110650237100001;-51.56694444;CONFRESA (A) - MT;-10.65388889
4234122010505000001;-42.35;CORDEIRO (C) - RJ;-22.01666667
4325121560435000001;-43.25;CORONEL PACHECO (C) - MG;-21.56666666
4461113330549000001;-44.61666666;CORRENTINA (C) - BA;-13.33333333
5765119010130000001;-57.65;CORUMBA (C) - MS;-19.01666666
5763118990126100001;-57.6375;CORUMBÁ (A) - MS;-18.99666667
3628110120074100001;-36.28638889;CORURIPE (A) - AL;-10.12861111
5857109900261100001;-58.57194444;COTRIGUAÇÚ (A) - MT;-9.90611111
5473118510252100001;-54.73583333;COXIM (A) - MS;-18.51222222
4066105180291100001;-40.67;CRATEUS (A) - CE;-5.18611111
4066105160296000001;-40.66666666;CRATEUS (C) - CE;-5.16666666
4761116781202100001;-47.61166667;CRISTALINA (A) - GO;-16.78805556
5367128600432100001;-53.67361111;CRUZ ALTA (A) - RS;-28.60361111
5359128630472000001;-53.6;CRUZ ALTA (C) - RS;-28.63333333
3908112660225000001;-39.08333333;CRUZ DAS ALMAS (C) - BA;-12.66666667
3915112640225100001;-39.15;CRUZ DAS ALMAS (A) - BA;-12.65
7266107630170000001;-72.66666667;CRUZEIRO DO SUL (C) - AC;-7.63333333
7268107610220100001;-72.6811111;CRUZEIRO DO SUL (A) - AC;-7.61055555
3658106430226000001;-36.58333333;CRUZETA (C) - RN;-6.43333333
5611115550151000001;-56.10833333;CUIABA (C) - MT;-15.61972221
5609115610151100001;-56.1;CUIABÁ (A) - MT;-15.61666667
4922125440923100001;-49.22999999;CURITIBA (A) - PR;-25.4486111
4926125430923000001;-49.26666667;CURITIBA (C) - PR;-25.43333333
5060127280982100001;-50.60416667;CURITIBANOS (A) - SC;-27.28861111
4445118740670100001;-44.45361111;CURVELO (A) - MG;-18.74777778
4445118750672000001;-44.45;CURVELO (C) - MG;-18.75
4120110450637100001;-41.20722222;DELFINO (A) - BA;-10.45527778
5289122630362100001;-52.8902778625488;DIAMANTE DO NORTE (A) - PR;-22.6394443511963
4359118251296000001;-43.6;DIAMANTINA (C) - MG;-18.25
4364118231356100001;-43.64777778;DIAMANTINA (A) - MG;-18.23083333
5645114390286000001;-56.45;DIAMANTINO (C) - MT;-14.4
4684111590732100001;-46.84722222;DIANOPOLIS (A) - TO;-11.59416667
5363126280810100001;-53.63277778;DIONÍSIO CERQUEIRA (A) - SC;-26.28638889
4486120160788000001;-44.86666666;DIVINOPOLIS (C) - MG;-20.16666666
5309125690520100001;-53.09444444;DOIS VIZINHOS (A) - PR;-25.69472222
5381130990170100001;-53.81527777;DOM PEDRITO (A) - RS;-30.99249999
4559119480722100001;-45.59388889;DORES DO INDAIÁ (A) - MG;-19.48166667
5491122190469100001;-54.91138889;DOURADOS (A) - MS;-22.19388889
4368122790034100001;-43.68333333;ECOLOGIA AGRÍCOLA (A) - RJ;-22.8
4083118350300000001;-40.83333333;ECOPORANGA (C) - ES;-18.35
6986106660104000001;-69.86666667;EIRUNEPE (C) - AM;-6.66666667
5251130530427000001;-52.51666667;ENCRUZILHADA DO SUL (C) - RS;-30.53333333
6873111020217100001;-68.735;EPITACIOLANDIA (A) - AC;-11.02444444
5230127660765100001;-52.30638889;ERECHIM (A) - RS;-27.66027778
4225103890065100001;-42.23694444;ESPERANTINA (A) - PI;-3.90083333
4225103900087000001;-42.25;ESPERANTINA (C) - PI;-3.9
4284114900570100001;-42.84972222;ESPINOSA (A) - MG;-14.91
4284114910569000001;-42.85;ESPINOSA (C) - MG;-14.91666666
4741106650180100001;-47.41833333;ESTREITO (A) - MA;-6.65333333
3899110530432100001;-38.99777778;EUCLIDES DA CUNHA (A) - BA;-10.53666667
4811115901152100001;-48.11944443;FACULDADE DA TERRA DE BRASÍLIA (A) - DF;-15.90694444
7034108140163100001;-70.34305555;FEIJO (A) - AC;-8.14194444
3896112260231100001;-38.96777778;FEIRA DE SANTANA (A) - BA;-12.26472222
3896112180230000001;-38.96666667;FEIRA DE SANTANA (C) - BA;-12.18333333
3681106110324000001;-36.81666667;FLORANIA (C) - RN;-6.11666667
3859108610329100001;-38.59722222;FLORESTA (A) - PE;-8.61027778
4969107560185100001;-49.698055267334;FLORESTA DO ARAGUAIA (A) - PA;-7.56166648864746
4441119880753000001;-44.41666667;FLORESTAL (C) - MG;-19.88333333
4441119880742100001;-44.41694444;FLORESTAL (A) - MG;-19.88527778
4301106760123000001;-43.01666666;FLORIANO (C) - PI;-6.76666666
4301106760123100001;-43.01666667;FLORIANO (A) - PI;-6.76666667
4856127580001000001;-48.56666667;FLORIANOPOLIS (C) - SC;-27.58333333
4859127600001100001;-48.6;FLORIANÓPOLIS-SÃO JOSE (A) - SC;-27.6
6616102530055000001;-66.16666667;FONTE BOA (C) - AM;-2.53333333
4545120450873100001;-45.45;FORMIGA (A) - MG;-20.45
4733115530935000001;-47.33333333;FORMOSA (C) - GO;-15.53333333
4625114930840000001;-46.25;FORMOSO (C) - MG;-14.93333333
4960111880220100001;-49.60833333;FORMOSO DO ARAGUAIA (A) - TO;-11.98722222
3854103760041100001;-38.55;FORTALEZA (A) - CE;-3.76666667
3854103750026000001;-38.55;FORTALEZA (C) - CE;-3.75
4319122980045100001;-43.19055556;FORTE DE COPACABANA (A) - RJ;-22.98833333
5448125600321100001;-54.48416667;FOZ DO IGUAÇU (A) - PR;-25.60166667
4736120581026000001;-47.36666667;FRANCA (C) - SP;-20.58333333
4738120571026100001;-47.38;FRANCA (A) - SP;-20.58
5341127390490100001;-53.41277778;FREDERICO WESTPHALEN (A) - RS;-27.39555556
4893120030543000001;-48.93333333;FRUTAL (C) - MG;-20.03333333
3649108900823100001;-36.49472222;GARANHUNS (A) - PE;-8.90694444
3651108880822000001;-36.51666666;GARANHUNS (C) - PE;-8.88333333
5325113180379100001;-53.2575;GAUCHA DO NORTE (A) - MT;-13.18472222
5135126391018100001;-51.35444444;GENERAL CARNEIRO (A) - PR;-26.39861111
4534109870425100001;-45.34638889;GILBUÉS (A) - PI;-9.87472222
5650112190415000001;-56.5;GLEBA CELESTE (C) - MT;-12.2
4900115210650000001;-49.0;GOIANESIA (C) - GO;-15.2166662216187
4899115220667100001;-48.99027778;GOIANESIA (A) - GO;-15.22027778
4925116660741000001;-49.25;GOIANIA (C) - GO;-16.66666667
4922116640770100001;-49.22;GOIANIA (A) - GO;-16.64277778
5013115910512000001;-50.13333333;GOIAS (C) - GO;-15.91666666
5014115930512100001;-50.14138889;GOIÁS (A) - GO;-15.93916667
5302124180468100001;-53.02861111;GOIOÊRE (A) - PR;-24.185
4198118790263100001;-41.98638888;GOVERNADOR VALADARES (A) - MG;-18.79055555
4616105810230100001;-46.16194444;GRAJAÚ (A) - MA;-5.81611111
4274114200882100001;-42.74805556;GUANAMBI (A) - BA;-14.20805556
4294118780860100001;-42.94305556;GUANHÃES (A) - MG;-18.78666667
3900104280870000001;-39.0;GUARAMIRANGA (C) - CE;-4.28333333
3819104260038100001;-38.1975;GUARAMIRANGA (A) - CE;-4.26111111
5488109940320100001;-54.88333333;GUARANTÃ DO NORTE (A) - MT;-9.95
3954116730194000001;-39.55;GUARATINGA (C) - BA;-16.73333333
4702117800616100001;-47.025;GUARDA-MOR (A) - MG;-17.8
4646123430735000001;-46.46666667;GUARULHOS (C) - SP;-23.43333333
5376116340526100001;-53.76611111;GUIRATINGA (A) - MT;-16.34166667
4904111740287100001;-49.04972222;GURUPI (A) - TO;-11.74583333
6307107630072100001;-63.07166667;HUMAITA (A) - AM;-7.63555556
6919000610120000001;-69.2;IAUARETÊ (C) - AM;0.61666667
5018123770930100001;-50.18055556;IBAITI (A) - PR;-23.77388889
3771108500448100001;-37.71138889;IBIMIRIM (A) - PE;-8.50944444
4404120010814000001;-44.05;IBIRITE (C) - MG;-20.01666667
4407120031208100001;-44.07777778;IBIRITÉ (ROLA MOÇA) (A) - MG;-20.03138889
5311128640394000001;-53.11666667;IBIRUBA (C) - RS;-28.65
4879121850492100001;-48.8;IBITINGA (A) - SP;-21.85555556
4321112190430100001;-43.21333333;IBOTIRAMA (A) - BA;-12.19305556
5363123390385100001;-53.63472222;ICARAÍMA (A) - PR;-23.39027778
4218122830005000001;-42.18333333;IGUABA GRANDE (C) - RJ;-22.83333333
4754124700003100001;-47.55;IGUAPE (A) - SP;-24.7
4754124710002000001;-47.5499992370605;IGUAPE (C) - SP;-24.716667175293
3929106360217000001;-39.3;IGUATU (C) - CE;-6.36666666
3927106390233100001;-39.27027778;IGUATÚ (A) - CE;-6.39666667
4362102270008100001;-43.62388888;ILHA DE SANTANA (A) - MA;-2.27083332
3336116190005100001;-33.36999999;ILHA DE TRINDADE (A) - ES;-16.19416666
4832125490001100001;-48.32583333;ILHA DO MEL (A) - PR;-25.49444444
3915114640078100001;-39.15;ILHEUS (A) - BA;-14.65
4745105550126100001;-47.45972222;IMPERATRIZ (A) - MA;-5.55555556
4748105530123000001;-47.48333333;IMPERATRIZ (C) - MA;-5.53333333
5108125561260100001;-51.08944444;INÁCIO MARTINS (A) - PR;-25.56583333
4926126910086100001;-49.26833333;INDAIAL (A) - SC;-26.91638889
4921126890086000001;-49.21666667;INDAIAL (C) - SC;-26.9
4816117710772000001;-48.16666667;IPAMERI (C) - GO;-17.71666667
3969114170125100001;-39.6925;IPIAU (A) - BA;-14.17138889
5323127180247000001;-53.23333333;IRAI (C) - RS;-27.18333333
5063125460836000001;-50.63333333;IRATI (C) - PR;-25.46666667
4186111300747000001;-41.86666667;IRECE (C) - BA;-11.3
4186111320755100001;-41.86472222;IRECÊ (A) - BA;-11.32888889
3781111110208000001;-37.81666667;ITABAIANINHA (C) - SE;-11.11666667
3779111270208100001;-37.79472222;ITABAIANINHA (A) - SE;-11.2725
4028112510249100001;-40.28333333;ITABERABA (A) - BA;-12.51666667
4028112510249000001;-40.28333333;ITABERABA (C) - BA;-12.51666667
5848103130037100001;-58.48305556;ITACOATIARA (A) - AM;-3.13305556
5843103130040000001;-58.43333333;ITACOATIARA (C) - AM;-3.13333333
5599104270131100001;-55.99305556;ITAITUBA (A) - PA;-4.27638889
5600104280045000001;-56.0;ITAITUBA (C) - PA;-4.28333333
4284117851097000001;-42.85;ITAMARANDIBA (C) - MG;-17.85
4150116550266100001;-41.5;ITAOBIM (A) - MG;-16.56
4953114980522100001;-49.53944444;ITAPACI (A) - GO;-14.98027778
4190121200123000001;-41.9;ITAPERUNA (C) - RJ;-21.2
4022115240269100001;-40.22944444;ITAPETINGA (A) - BA;-15.24472222
4885123980707100001;-48.85194444;ITAPEVA (A) - SP;-23.98138889
3958103480102100001;-39.58833333;ITAPIPOCA (A) - CE;-3.48388888
4680122410633100001;-46.82;ITAPIRA (A) - SP;-22.43
4864126080002100001;-48.64166667;ITAPOÁ (A) - SC;-26.08138889
5418123440336100001;-54.18166667;ITAQUIRAI (A) - MS;-23.44944444
4086119860245000001;-40.86666667;ITARANA (C) - ES;-19.86666667
5450117170585100001;-54.50138889;ITIQUIRA (A) - MT;-17.175
4011113510755100001;-40.11666667;ITIRUÇÚ (A) - BA;-13.51666667
4011113350755000001;-40.11666667;ITIRUÇU (JAGUAQUARA) (C) - BA;-13.35
4728123260616000001;-47.283332824707;ITU (C) - SP;-23.2666664123535
4129113810531000001;-41.3;ITUAÇU (C) - BA;-13.81666667
4951118960560000001;-49.51666667;ITUIUTABA (C) - MG;-18.96666667
4950118950560100001;-49.5;ITUIUTABA (A) - MG;-18.95
4919118400488100001;-49.19194444;ITUMBIARA (A) - GO;-18.40972222
4921118410449000001;-49.21666666;ITUMBIARA (C) - GO;-18.41666666
4964127410484100001;-49.64666667;ITUPORANGA (A) - SC;-27.41833333
4777120350600100001;-47.775;ITUVERAVA (A) - SP;-20.35944444
5084125000808000001;-50.85;IVAI (C) - PR;-25.0
5085125010808100001;-50.85444444;IVAÍ (A) - PR;-25.01333333
5381122300373100001;-53.81777777;IVINHEMA (A) - MS;-22.30777777
5381122290369000001;-53.81666666;IVINHEMA (C) - MS;-22.3
4336122980019100001;-43.37;JACAREPAGUA (A) - RJ;-22.98694444
4337122980003000001;-43.37027778;JACAREPAGUÁ (C) - RJ;-22.98777778
4046111180484000001;-40.46666667;JACOBINA (C) - BA;-11.18333333
4046111200453100001;-40.46527778;JACOBINA (A) - BA;-11.205
5337132550047100001;-53.37638889;JAGUARÃO (A) - RS;-32.55416667
3862105900184100001;-38.62777778;JAGUARIBE (A) - CE;-5.90527778
3776104780011000001;-37.76666666;JAGUARUANA (C) - CE;-4.78333333
3777104780012100001;-37.77694444;JAGUARUANA (A) - CE;-4.78694444
5059120160457100001;-50.54611111;JALES (A) - SP;-20.27027778
4329115780516000001;-43.3;JANAUBA (C) - MG;-15.78333333
4436115440473000001;-44.36666667;JANUARIA (C) - MG;-15.45
5171117880662000001;-51.71666667;JATAI (C) - GO;-17.88333333
5171117920582100001;-51.71777778;JATAÍ (A) - GO;-17.92388889
5155127160776100001;-51.55888889;JOAÇABA (A) - SC;-27.16944444
4311119830859000001;-43.11666666;JOAO MONLEVADE (C) - MG;-19.83333333
3486107090007000001;-34.86666667;JOAO PESSOA (C) - PB;-7.1
3485107140044100001;-34.85083333;JOÃO PESSOA (A) - PB;-7.14194444
4616117700760000001;-46.16666667;JOAO PINHEIRO (C) - MG;-17.7
4582117320870100001;-45.82694444;JOÃO PINHEIRO (A) - MG;-17.32861111
4994123500522100001;-49.94638889;JOAQUIM TÁVORA (A) - PR;-23.50527778
4968121040405100001;-49.69;JOSÉ BONIFÁCIO (A) - SP;-21.04972222
5752111280260100001;-57.52666667;JUARA (A) - MT;-11.28027778
5873111360200100001;-58.73305556;JUÍNA (A) - MT;-11.36694444
4334121760939000001;-43.35;JUIZ DE FORA (C) - MG;-21.76666666
4336121770950100001;-43.36416667;JUIZ DE FORA (A) - MG;-21.77
4371116780650000001;-43.71666667;JURAMENTO (C) - MG;-16.78333333
5460122850379100001;-54.60555556;JUTI (A) - MS;-22.85722222
6483107250061000001;-64.83333333;LABREA (C) - AM;-7.25
6478107260064100001;-64.78861111;LABREA (A) - AM;-7.26083333
5033127810936000001;-50.33333333;LAGES (C) - SC;-27.81666667
5150128210840000001;-51.5;LAGOA VERMELHA (C) - RS;-28.21666667
5151128220842100001;-51.51222222;LAGOA VERMELHA (A) - RS;-28.22194444
4531121950878000001;-45.31666666;LAMBARI (C) - MG;-21.95
4500121750918000001;-45.0;LAVRAS (C) - MG;-21.75
4138112560438000001;-41.38333333;LENCOIS (C) - BA;-12.56666667
4138112550439100001;-41.38888889;LENÇOIS (A) - BA;-12.5575
4006119350040100001;-40.06861111;LINHARES (A) - ES;-19.35666667
4973121660459100001;-49.73444444;LINS (A) - SP;-21.66555556
4975121790425000001;-49.75;LINS (C) - SP;-21.7999992370605
5113123310566000001;-51.13333333;LONDRINA (C) - PR;-23.31666667
4582112150754100001;-45.82972222;LUIZ EDUARDO MAGALHAES (A) - BA;-12.15222222
4796116270958100001;-47.96638889;LUZIANIA (A) - GO;-16.27222222
4228103410049000001;-42.28333333;LUZILANDIA(LAG.DO PIAUI) (C) - PI;-3.41666667
4181122380032100001;-41.81666667;MACAÉ (A) - RJ;-22.38333333
4034112110380100001;-40.35;MACAJUBA (A) - BA;-12.11666667
5111100050014000001;-51.11666667;MACAPA (C) - AP;-0.05
3676105110003000001;-36.76666666;MACAU (C) - RN;-5.11666666
3677105120003100001;-36.71527778;MACAU (A) - RN;-5.115
3570109660064000001;-35.7;MACEIO (C) - AL;-9.66666667
3577109550064100001;-35.76999999;MACEIÓ (A) - AL;-9.55111111
4591121660873000001;-45.91638888;MACHADO (C) - MG;-21.66638888
5036126390808100001;-50.36333333;MAJOR VIEIRA (A) - SC;-26.39361111
5401124530392100001;-54.01972222;Mal. CANDIDO RONDON (A) - PR;-24.53583333
6062103290019100001;-60.62833333;MANACAPURU (A) - AM;-3.29444444
5995103110067100001;-59.95;MANAUS (A) - AM;-3.11666667
5995103110067000001;-59.95;MANAUS (C) - AM;-3.11666667
6129105810050000001;-61.3;MANICORE (C) - AM;-5.81666666
4093118800213100001;-40.94;MANTENA (A) - MG;-18.81
4937105160116100001;-49.37916667;MARABA (A) - PA;-5.16722222
4913105360095000001;-49.13333333;MARABA (C) - PA;-5.36666667
5517121600401100001;-55.17777778;MARACAJU (A) - MS;-21.60916667
3897113900010100001;-38.97222222;MARAU (A) - BA;-13.90722222
7278108940230100001;-72.78666667;MARECHAL THAUMATURGO (A) - AC;-8.95
4538122291276000001;-45.38333333;MARIA DA FE (C) - MG;-22.3
4537122311276100001;-45.37305556;MARIA DE FÉ (A) - MG;-22.31416667
4281122910004000001;-42.81666666;MARICA (C) - RJ;-22.91666666
4053119390085000001;-40.53333333;MARILANDIA (COLATINA) (C) - ES;-19.4
5191123400542100001;-51.91666667;MARINGA (A) - PR;-23.40777778
5191123390542000001;-51.91666667;MARINGA (C) - PR;-23.4
5491110250285000001;-54.91666667;MATUPA (C) - MT;-10.25
5767103390035100001;-57.67361111;MAUÉS (A) - AM;-3.39888889
5296103510251100001;-52.96361111;MEDICILANDIA (A) - PA;-3.51083333
5259117570706100001;-52.59527778;MINEIROS (A) - GO;-17.5725
5643120390140100001;-56.43166667;MIRANDA (A) - MS;-20.39555556
4401115080452000001;-44.01666666;MOCAMBINHO (C) - MG;-15.08333333
4401115080460100001;-44.01611111;MOCAMBINHO (A) - MG;-15.08611111
4626124040045100001;-46.26305556;MOELA (A) - SP;-24.0475
4434114400512100001;-44.35;MONTALVANIA (A) - MG;-14.41
5408102000145000001;-54.08333333;MONTE ALEGRE (C) - PA;-2.0
4688113241253100001;-46.88972222;MONTE ALEGRE DE GOIAS (A) - GO;-13.24805556
4275115080603000001;-42.75;MONTE AZUL (C) - MG;-15.08333333
3711107890603100001;-37.11527778;MONTEIRO (A) - PB;-7.89138889
3706107880603000001;-37.06666667;MONTEIRO (C) - PB;-7.88333333
3929110430464000001;-39.3;MONTE SANTO (C) - BA;-10.43333333
4386116710646100001;-43.86666667;MONTES CLAROS (A) - MG;-16.71666667
4383116680646000001;-43.83333333;MONTES CLAROS (C) - MG;-16.68333333
4604122861500100001;-46.04305556;MONTE VERDE (A) - MG;-22.86166667
3835105130043100001;-38.35638889;MORADA NOVA (A) - CE;-5.13638889
3836105110043000001;-38.36666666;MORADA NOVA (C) - CE;-5.11666666
4880125500059100001;-48.80861111;MORRETES (A) - PR;-25.50888889
4910117710771100001;-49.1;MORRINHOS (A) - GO;-17.71666667
4121111211003000001;-41.21666667;MORRO DO CHAPEU (C) - BA;-11.21666667
4190107840242000001;-41.9;MORRO DOS CAVALOS (C) - PI;-7.85
3729105190036100001;-37.3;MOSSORÓ (A) - RN;-5.2
5090131260010100001;-50.9;MOSTARDAS (A) - RS;-31.23333333
4140120450530000001;-41.4;MUNIZ FREIRE (C) - ES;-20.45
4238121100297100001;-42.38333333;MURIAÉ (A) - MG;-21.1
3520105900048100001;-35.2;NATAL (A) - RN;-5.9
3520105910048000001;-35.2;NATAL (C) - RN;-5.91666667
5665118960104100001;-56.65;NHUMIRIM (A) - MS;-18.96666667
5665118980089000001;-56.65;NHUMIRIM (NHECOLANDIA) (C) - MS;-18.98333333
4845114440583100001;-48.45;NIQUELANDIA (A) - GO;-14.45
5057123400668100001;-50.57777778;NOVA FÁTIMA (A) - PR;-23.40694444
4267122331046100001;-42.67722221;NOVA FRIBURGO (A) - RJ;-22.33305554
5709113030353100001;-57.09222222;NOVA MARINGA (A) - MT;-13.03861111
5196124430654100001;-51.96305556;NOVA TEBAS (A) - PR;-24.43722222
5475113410518100001;-54.75222222;NOVA UBIRATÃ (A) - MT;-13.41111111
4039118690154100001;-40.39083333;NOVA VENECIA (A) - ES;-18.69527778
5234114690316000001;-52.35;NOVA XAV.(XAVANTINA) (C) - MT;-14.7
5285126400960100001;-52.85044444;NOVO HORIZONTE (A) - SC;-26.40708333
5823112520431100001;-58.23138889;NOVO MUNDO (A) - MT;-12.52194444
4992104250113100001;-49.92722222;NOVO REPARTIMENTO (A) - PA;-4.25666667
5551101910037000001;-55.51666667;OBIDOS (C) - PA;-1.91666667
4214106970156100001;-42.14694444;OEIRAS (A) - PI;-6.97416667
5186003810019100001;-51.8625;OIAPOQUE (A) - AP;3.81361111
4481120680966000001;-44.81666667;OLIVEIRA (C) - MG;-20.68333333
4004107900459000001;-40.05;OURICURI (C) - PE;-7.9
4984122950448100001;-49.85;OURINHOS (A) - SP;-22.95
4369120511061100001;-43.6916656494141;OURO BRANCO (A) - MG;-20.5166664123535
5063103840108100001;-50.63805556;PACAJÁ (A) - PA;-3.84361111
5606115780140000001;-56.06666666;PADRE RICARDO REMETTER (C) - MT;-15.78333333
3556108660180100001;-35.56805556;PALMARES (A) - PE;-8.66638889
4829110180280100001;-48.3;PALMAS (A) - TO;-10.18333333
4829110180280000001;-48.3;PALMAS (C) - TO;-10.18333333
5331127920631100001;-53.3175;PALMEIRA DA MISSÕES (A) - RS;-27.92
3662109420275100001;-36.62027778;Palmeira dos Indios (A) - AL;-9.42055556
3670109440274000001;-36.7;PALMEIRA DOS INDIOS (C) - AL;-9.45
3743109750019000001;-37.43333333;PAO DE AÇUCAR (C) - AL;-9.75
3744109760019100001;-37.44777778;PÃO DE AÇUCAR (A) - AL;-9.76583333
4688117230712000001;-46.88333333;PARACATU (C) - MG;-17.23333333
4734103010101100001;-47.34305556;PARAGOMINAS (A) - PA;-3.01027778
4787112610280100001;-47.87194444;PARANÃ (A) - TO;-12.615
4851125530004000001;-48.51666667;PARANAGUA (C) - PR;-25.53333333
5118119690424100001;-51.18138889;PARANAIBA (A) - MS;-19.69527778
5118119750331000001;-51.18333333;PARANAIBA (C) - MS;-19.75
5213122650311100001;-52.13444444;PARANAPOEMA (A) - PR;-22.49166667
5403114420474100001;-54.03527778;PARANATINGA (A) - MT;-14.42138889
4472123220004100001;-44.72666667;PARATÍ (A) - RJ;-23.22333333
5042116960678100001;-50.42527778;PARAUNA (A) - GO;-16.9625
5675102630035100001;-56.75611111;PARINTINS (A) - AM;-2.63888889
5673102630029000001;-56.73333333;PARINTINS (C) - AM;-2.63333333
4176103080079000001;-41.76666666;PARNAIBA (C) - PI;-3.08333333
4178103080079100001;-41.78333333;PARNAÍBA (A) - PI;-3.08638889
6993109360206100001;-69.93444444;PARQUE ESTADUAL CHANDLESS (A) - AC;-9.36611111
4496122380920000001;-44.96666666;PASSA QUATRO (C) - MG;-22.38333333
4496122391040100001;-44.96166667;PASSA QUATRO (A) - MG;-22.39611111
5240128220684100001;-52.40388889;PASSO FUNDO (A) - RS;-28.22944444
5240128210684000001;-52.4;PASSO FUNDO (C) - RS;-28.21666666
4663120740784100001;-46.63388889;PASSOS (A) - MG;-20.74527778
3727107070249100001;-37.2725;PATOS (A) - PB;-7.07972222
3726107010249000001;-37.26666666;PATOS (C) - PB;-7.01666666
4643118510940000001;-46.43333333;PATOS DE MINAS (C) - MG;-18.51666667
4696119000976100001;-46.96666667;PATROCINIO (A) - MG;-19.0
4113108130374000001;-41.13333333;PAULISTANA (C) - PI;-8.13333333
4107108080374100001;-41.08;PAULISTANA (A) - PI;-8.08
3821109360252000001;-38.21666666;PAULO AFONSO (C) - BA;-9.36666666
3821109360252100001;-38.21666667;PAULO AFONSO (A) - BA;-9.36694444
4128116000648000001;-41.28333333;PEDRA AZUL (C) - MG;-16.0
4818108960187000001;-48.18333333;PEDRO AFONSO (C) - TO;-8.96666666
4819108960189100001;-48.19416667;PEDRO AFONSO (A) - TO;-8.96861111
4834112010242000001;-48.35;PEIXE (C) - TO;-12.01666667
4854112010242100001;-48.55;PEIXE (A) - TO;-12.01666667
5241131780013000001;-52.41666667;PELOTAS (C) - RS;-31.78333333
3676108390639000001;-36.76666666;PESQUEIRA (C) - PE;-8.4
4048109380370100001;-40.48333333;PETROLINA (A) - PE;-9.38333333
4046109360370000001;-40.46666667;PETROLINA (C) - PE;-9.36666667
4177113151290100001;-41.77388889;PIATÃ (A) - BA;-13.15583333
4329122461777100001;-43.29138889;PICO DO COUTO (A) - RJ;-22.465
4140107070233100001;-41.40416667;PICOS (A) - PI;-7.07083333
4148107030207000001;-41.48333333;PICOS (C) - PI;-7.03333333
4762122700573100001;-47.62305556;PIRACICABA (A) - SP;-22.70277778
4483117250503100001;-44.83555556;PIRAPORA (A) - MG;-17.25805556
4491117350505000001;-44.91666667;PIRAPORA (C) - MG;-17.35
4896115850740000001;-48.96666667;PIRENOPOLIS (C) - GO;-15.85
4828117300752100001;-48.28305556;PIRES DO RIO (A) - GO;-17.3075
4178104260161000001;-41.78333333;PIRIPIRI (C) - PI;-4.26666666
4177104260161100001;-41.77805556;PIRIPIRI (A) - PI;-4.26388889
5424103880096100001;-54.24611111;PLACAS (A) - PA;-3.88111111
5374125720398100001;-53.74805556;PLANALTO (A) - PR;-25.72166667
3810110730362100001;-38.10777778;POÇO VERDE (A) - SE;-10.7375
4500119240705100001;-45.00833333;POMPEU (A) - MG;-19.24194444
4500119210690000001;-45.0;POMPEU (C) - MG;-19.21666667
5553122530650000001;-55.53333333;PONTA PORA (C) - MS;-22.53333333
5553122530650100001;-55.53333333;PONTA PORÃ (A) - MS;-22.53333333
5934115250256100001;-59.34666667;PONTES E LACERDA (A) - MT;-15.25111111
5116130040046100001;-51.16666667;PORTO ALEGRE (A) - RS;-30.05
5116130040046000001;-51.16666667;PORTO ALEGRE (C) - RS;-30.05
5223101730015000001;-52.23333333;PORTO DE MOZ (C) - PA;-1.73333333
3543109180050000001;-35.43333333;PORTO DE PEDRAS (C) - AL;-9.18333333
5142000700077100001;-51.42777778;PORTO GRANDE (A) - AP;0.70277778
5755121700085100001;-57.55333333;PORTO MURTINHO (A) - MS;-21.70583333
4841110710239000001;-48.41666667;PORTO NACIONAL (C) - TO;-10.71666667
3918116380085100001;-39.1825;PORTO SEGURO (A) - BA;-16.38916667
6347108760095100001;-63.475;PORTO VELHO (A) - RO;-8.76388889
7274108260204100001;-72.74777777;PORTO WALTER (A) - AC;-8.26694443
4636114080834100001;-46.36638889;POSSE (A) - GO;-14.08916667
4636114100825000001;-46.36666667;POSSE (C) - GO;-14.1
5438115830450000001;-54.38333333;POXOREO (C) - MT;-15.83333333
4811121330544100001;-48.11388889;PRADÓPOLIS (A) - SP;-21.33833333
4270102590000100001;-42.70722222;PREGUIÇAS (A) - MA;-2.5925
6002102050092100001;-60.02555556;PRESIDENTE FIGUEIREDO (A) - AM;-2.05638889
5138122110435000001;-51.38333333;PRESIDENTE PRUDENTE (C) - SP;-22.11666666
5140122120435100001;-51.4;PRESIDENTE PRUDENTE (A) - SP;-22.12
4103121100080100001;-41.03888889;PRES. KENNEDY (A) - ES;-21.10111111
3686110190019000001;-36.86666667;PROPRIA (C) - SE;-10.2
5643130360124100001;-56.7286;QUARAI (A) - RS;-30.6239
3961110980315100001;-39.61694444;QUEIMADAS (A) - BA;-10.98472222
5222112620382100001;-52.22083333;QUERÊNCIA (A) - MT;-12.62722222
3928105160079000001;-39.28333333;QUIXERAMOBIM (C) - CE;-5.16666666
3928105170079100001;-39.28722222;QUIXERAMOBIM (A) - CE;-5.17416667
5097122370350100001;-50.97416667;RANCHARIA (A) - SP;-22.3725
4341122860042000001;-43.41666667;REALENGO (C) - RJ;-22.86666667
3495108050010100001;-34.95;RECIFE (A) - PE;-8.05
3495108050010000001;-34.95;RECIFE (CURADO) (C) - PE;-8.05
4209109610401100001;-42.10277778;REMANSO (A) - BA;-9.60277778
4209109630400000001;-42.1;REMANSO (C) - BA;-9.63333333
4445122450439100001;-44.45;RESENDE (A) - RJ;-22.45
4443122450439000001;-44.43333333;RESENDE (C) - RJ;-22.45
4263122700062000001;-42.63333333;RIO BONITO (C) - RJ;-22.7
6816109950220100001;-68.165;RIO BRANCO (A) - AC;-9.95777778
6780109960160000001;-67.8;RIO BRANCO (C) - AC;-9.96666667
5452121770329100001;-54.52805556;RIO BRILHANTE (A) - MS;-21.775
4318122880011000001;-43.18333333;RIO DE JANEIRO (C) - RJ;-22.88333333
4359123040009100001;-43.6;RIO DE JANEIRO-MARAMBAIA (A) - RJ;-23.05
5014126930592100001;-50.14638889;RIO DO CAMPO (A) - SC;-26.9375
5209132030002000001;-52.1;RIO GRANDE (C) - RS;-32.03333333
5209132010002100001;-52.1;RIO GRANDE (A) - RS;-32.01666667
4958126240869100001;-49.58055556;RIO NEGRINHO (A) - SC;-26.24861111
5238129870111100001;-52.38249999;RIO PARDO (A) - RS;-29.87333332
4359115600950100001;-43.6;RIO PARDO DE MINAS (A) - MG;-15.6
5956102430059100001;-59.56361111;RIO URUBU (A) - AM;-2.43166667
5096117780782100001;-50.96472222;RIO VERDE (A) - GO;-17.78583333
5091117790774000001;-50.91666667;RIO VERDE (C) - GO;-17.8
4788115931100000001;-47.88333333;RONCADOR (C) - DF;-15.93333333
4807104780221100001;-48.07111111;RONDON DO PARÁ (A) - PA;-4.78444444
5456116450284000001;-54.56666666;RONDONOPOLIS (C) - MT;-16.45
5456116450284100001;-54.58333333;RONDONÓPOLIS (A) - MT;-16.45
4743119880912100001;-47.43333333;SACRAMENTO (A) - MG;-19.88333333
4229116170495100001;-42.29;SALINAS (A) - MG;-16.17
4229116160471000001;-42.3;SALINAS (C) - MG;-16.16666667
4735100610021100001;-47.35111111;SALINÓPOLIS (A) - PA;-0.61861111
5811115130303100001;-58.11497222;SALTO DO CEU (A) - MT;-15.1358
3851113010051100001;-38.51666666;SALVADOR (A) - BA;-13.01666666
3850113000051000001;-38.5;SALVADOR (ONDINA) (C) - BA;-13.0
4368122910063000001;-43.68333333;SANTA CRUZ (C) - RJ;-22.91666667
5091120200402000001;-50.9166679382324;SANTA FE DO SUL (C) - SP;-20.2000007629395
5370129700095100001;-53.70361111;SANTA MARIA (A) - RS;-29.70833333
5370129700095000001;-53.7;SANTA MARIA (C) - RS;-29.7
4200121950620000001;-42.0;SANTA MARIA MADALENA (C) - RJ;-21.95
4881128600052100001;-48.81333333;SANTA MARTA (A) - SC;-28.60416667
5035109330168100001;-50.35027778;SANTANA DO ARAGUAIA (A) - PA;-9.33861111
5559130830328000001;-55.6;SANTANA DO LIVRAMENTO (C) - RS;-30.83333333
5561130840328100001;-55.61277778;SANTANA DO LIVRAMENTO (A) - RS;-30.8425
4452111020450100001;-44.525;SANTA RITA DE CASSIA (A) - BA;-11.02
5448127890276100001;-54.48055556;SANTA ROSA (A) - RS;-27.89305556
4057119980988100001;-40.57944444;SANTA TERESA (A) - ES;-19.98861111
5334133510024000001;-53.35;SANTA VITORIA DO PALMAR (C) - RS;-33.51666667
5488129190394100001;-55.4911;SANTIAGO (A) - RS;-29.3206
4215121530095000001;-42.15;SANTO ANTONIO DE PADUA (C) - RJ;-21.53333333
5388114920648100001;-53.88361111;SANTO ANTONIO DO LESTE (A) - MT;-14.92777778
5379127860550100001;-53.79722222;SANTO AUGUSTO (A) - RS;-27.86
5601128640083100001;-56.01555556;SÃO BORJA (A) - RS;-28.64944444
4786121960856000001;-47.86666667;SAO CARLOS (C) - SP;-21.96666667
4786121950863100001;-47.86666667;SÃO CARLOS (A) - SP;-21.95
5072111610218100001;-50.72777778;SÃO FELIX  DO ARAGUAIA (A) - MT;-11.61888889
5196106630206000001;-51.96666667;SAO FELIX DO XINGU (C) - PA;-6.63333333
5431130340126100001;-54.5253;SÃO GABRIEL (A) - RS;-30.5706
5455119420647100001;-54.55305556;SÃO GABRIEL DO OESTE (A) - MS;-19.42027778
3821106750233000001;-38.21666667;SÃO GONÇALO (C) - PB;-6.75
3822106750233100001;-38.2275;SÃO GONÇALO (A) - PB;-6.75666667
4425121100991100001;-44.25055556;SÃO JOÃO DEL REI (A) - MG;-21.10611111
4225108350235000001;-42.25;SAO JOAO DO PIAUI (C) - PI;-8.35
4225108360235100001;-42.25083333;SÃO JOÃO DO PIAUÍ (A) - PI;-8.36472222
4993128291415000001;-49.93333333;SAO JOAQUIM (C) - SC;-28.3
4993128271410100001;-49.93444444;SÃO JOAQUIM (A) - SC;-28.27555556
5671113430350000001;-56.71666666;SAO JOSE DO RIO CLARO (C) - MT;-13.43333333
5005128751244100001;-50.05833333;SÃO JOSÉ DOS AUSENTES (A) - RS;-28.75138889
4501122100953000001;-45.01666667;SAO LOURENCO (C) - MG;-22.1
4421102530050000001;-44.21666667;SAO LUIS (C) - MA;-2.53333333
4421102520056100001;-44.21305556;SÃO LUIS (A) - MA;-2.52694444
4541123220874100001;-45.41722222;SÃO LUIS DO PARAITINGA (A) - SP;-23.22833333
3556109280019100001;-35.56583333;SÃO LUIS DO QUITUNDE (A) - AL;-9.2875
5501128390245000001;-55.01666667;SAO LUIZ GONZAGA (C) - RS;-28.4
5496128410245100001;-54.9625;SÃO LUIZ GONZAGA (A) - RS;-28.41722222
3984118700025000001;-39.85;SAO MATEUS (C) - ES;-18.7
3984118710039100001;-39.84833333;SÃO MATEUS (A) - ES;-18.71388889
4816123850678100001;-48.165;SÃO MIGUEL ARCANJO (A) - SP;-23.85138889
5350126770665100001;-53.50444444;SÃO MIGUEL DO OESTE (A) - SC;-26.77694444
4661123640800000001;-46.61666667;SAO PAULO (IAG) (C) - SP;-23.65
4661123500792100001;-46.61666666;SAO PAULO - MIRANTE (A) - SP;-23.5
4661123500792000001;-46.61666667;SAO PAULO(MIR.de SANTANA) (C) - SP;-23.5
4271105910287100001;-42.71861111;SÃO PEDRO DO PIAUÍ (A) - PI;-5.91111111
4270109030402100001;-42.70055556;SAO RAIMUNDO NONATO (A) - PI;-9.03305556
4506116360460100001;-45.06944444;SÃO ROMÃO (A) - MG;-16.36944444
4711120910820000001;-47.11666666;SAO S.DO PARAISO (C) - MG;-20.91666666
4754121480617000001;-47.55;SAO SIMAO (C) - SP;-21.48333333
5061118960488100001;-50.61666667;SÃO SIMÃO (A) - GO;-18.96666667
4105122040008100001;-41.05194444;SÃO TOMÉ (A) - RJ;-22.04166667
5541115810800000001;-55.41666666;SÃO VICENTE (C) - MT;-15.81666666
5945110160105100001;-59.45111111;SAPEZAL (A) - MT;-10.16583333
4018110460558000001;-40.18333333;SENHOR DO BONFIM (C) - BA;-10.46666666
4014110440548100001;-40.14694444;SENHOR DO BONFIM (A) - BA;-10.44416667
3708106460169000001;-37.08333333;SERIDO (CAICO) (C) - RN;-6.46666667
4025117790208100001;-40.25;SERRA DOS AIMORES (A) - MG;-17.8
5014106070719100001;-50.14222222;SERRA DOS CARAJÁS (A) - PA;-6.0775
3829107950461100001;-38.29472222;SERRA TALHADA (A) - PE;-7.95361111
3896111630359000001;-38.96666667;SERRINHA (C) - BA;-11.63333333
3902111660339100001;-39.02305556;SERRINHA (A) - BA;-11.66472222
4425119460732000001;-44.25;SETE LAGOAS (C) - MG;-19.46666667
4417119450719100001;-44.17333332;SETE LAGOAS (A) - MG;-19.455
5502123960402100001;-55.02416667;SETE QUEDAS (A) - MS;-23.96694444
6700100110090000001;-67.0;S.G.DA CACHOEIRA(UAUPES) (C) - AM;-0.11666667
5497120980464100001;-54.97194444;SIDROLANDIA (A) - MS;-20.98166667
5556111980371100001;-55.56583333;SINOP (A) - MT;-11.98222222
5665113440350100001;-56.65;S.J. DO RIO CLARO (A) - MT;-13.45
4033103730109000001;-40.33333333;SOBRAL (C) - CE;-3.73333333
4034103730109100001;-40.34555556;SOBRAL (A) - CE;-3.73166667
5255128850667100001;-52.55833333;SOLEDADE (A) - RS;-28.85361111
4766123350609100001;-47.66666667;SOROCABA (A) - SP;-23.35
4743123480645000001;-47.43333333;SOROCABA (C) - SP;-23.48333333
5571112550380100001;-55.71666667;SORRISO (A) - MT;-12.55
4851100810011100001;-48.51583333;SOURE (A) - PA;-0.81111111
4851100730010000001;-48.51666667;SOURE (C) - PA;-0.73333333
4451111010450000001;-44.51666667;STa. R. DE CASSIA (IBIPETUBA) (C) - BA;-11.01666667
3571107830418000001;-35.71666666;SURUBIM (C) - PE;-7.83333333
3575107840418100001;-35.75527778;SURUBIM (A) - PE;-7.845
4641112390603000001;-46.41666666;TAGUATINGA (C) - TO;-12.4
5741114650322100001;-57.41666667;TANGARÁ DA SERRA (A) - MT;-14.65
7076108160190000001;-70.76666667;TARAUACA (C) - AC;-8.16666667
5091001490021100001;-50.91666667;TARTARUGUALZINHO (A) - AP;1.49666667
4041106000398000001;-40.41666666;TAUA (C) - CE;-6.0
4028106010415100001;-40.28166667;TAUÁ (A) - CE;-6.01666667
4552123040571100001;-45.52027778;TAUBATÉ (A) - SP;-23.04194444
4554123030577000001;-45.55;TAUBATÉ (C) - SP;-23.03333333
6469103830047000001;-64.7;TEFE (C) - AM;-3.83333333
4150117850356000001;-41.5;TEOFILO OTONI (C) - MG;-17.8500003814697
4151117890475100001;-41.51666667;TEÓFILO OTONI (A) - MG;-17.9
4281105080074000001;-42.81666666;TERESINA (C) - PI;-5.08333333
4280105070074100001;-42.80694444;TERESINA (A) - PI;-5.07388889
4296122410874000001;-42.96666666;TERESOPOLIS (C) - RJ;-22.41666666
4298122440980100001;-42.98722222;TERESÓPOLIS (A) - RJ;-22.44888889
5179129450063000001;-51.8;TEUTÔNIA (C) - RS;-29.45
4263119560333100001;-42.63333333;TIMÓTEO (A) - MG;-19.56666667
4815102410038100001;-48.16;TOMÉ AÇU (A) - PA;-2.41
4973129350004100001;-49.73305556;TORRES (A) - RS;-29.35027778
4973129350004000001;-49.73305556;TORRES (C) - RS;-29.35
4690101060036000001;-46.9;TRACUATEUA (C) - PA;-1.06666666
5013130000002100001;-50.13527778;TRAMANDAI (A) - RS;-30.00972222
5170120780313100001;-51.7;TRES LAGOAS (A) - MS;-20.78
5170120780313000001;-51.7000007629395;TRES LAGOAS (C) - MS;-20.783332824707
4546118200921100001;-45.46666667;TRÊS MARIA (A) - MG;-18.2
3811107811105000001;-38.11666667;TRIUNFO (C) - PE;-7.81666667
5138129860042000001;-51.38333333;TRIUNFO (C) - RS;-29.86666667
4966103760040000001;-49.66666667;TUCURUI (C) - PA;-3.76666667
4967103820148100001;-49.675;TUCURUÍ (A) - PA;-3.82277778
4536101560044000001;-45.36666667;TURIACU (C) - MA;-1.56666667
4537101660041100001;-45.37277778;TURIAÇU (A) - MA;-1.66166667
3949109830453100001;-39.49555556;UAUÁ (A) - BA;-9.83361111
4795119730737000001;-47.95;UBERABA (C) - MG;-19.73333333
4825118910869100001;-48.25;UBERLÂNDIA (A) - MG;-18.91666666
3909115270082100001;-39.09083333;UNA (A) - BA;-15.28
4654116360460000001;-46.55;UNAI (C) - MG;-16.36666667
4688116550631100001;-46.88194444;UNAI (A) - MG;-16.55388889
4950128001822100001;-49.5;URUBICI (A) - SC;-28.0
5775102530017100001;-57.75833333;URUCARÁ (A) - AM;-2.53472222
4434107470393100001;-44.34472222;URUÇUI (A) - PI;-7.47472222
5708129840062100001;-57.0825;URUGUAIANA (A) - RS;-29.8425
5708129750062000001;-57.08333333;URUGUAIANA (C) - RS;-29.75
4931128510048000001;-49.31666667;URUSSANGA (C) - SC;-28.51666667
4931128530048100001;-49.31555556;URUSSANGA (A) - SC;-28.5325
4776120000560000001;-47.7666664123535;USINA JUNQUEIRA (C) - SP;-20.0
5088128510986100001;-50.88277778;VACARIA (A) - RS;-28.51361111
4371108410265000001;-43.71666667;VALE DO GURGUEIA (CRISTIANO CASTRO) (C) - PI;-8.41666667
3912113340105100001;-39.12666667;VALENÇA (A) - BA;-13.34361111
4370122350367100001;-43.7;VALENÇA (A) - RJ;-22.35
4173106390301100001;-41.73944444;VALENÇA DO PIAUI (A) - PI;-6.39861111
5093121310374100001;-50.93027778;VALPARAISO (A) - SP;-21.31916667
4540121560955100001;-45.40444444;VARGINHA (A) - MG;-21.56666667
4284120750689000001;-42.85;VIÇOSA (C) - MG;-20.75
4286120760712100001;-42.86666667;VIÇOSA (A) - MG;-20.76666667
5987115060222100001;-59.87277778;VILA BELA DA SANTÍSSIMA TRINDADE (A) - MT;-15.06277778
4341122860045100001;-43.41111111;VILA MILITAR (A) - RJ;-22.86083333
6015112730590100001;-60.15777778;VILHENA (A) - RO;-12.73472222
4031120310036000001;-40.31666667;VITORIA (C) - ES;-20.31666667
4029120260009100001;-40.3;VITÓRIA (A) - ES;-20.26666667
4079114880874000001;-40.8;VITORIA DA CONQUISTA (C) - BA;-14.88333333
4046114880870100001;-40.46666667;VITORIA DA CONQUISTA (A) - BA;-14.88333333
4996120400486100001;-49.96527778;VOTUPORANGA (A) - SP;-20.40694444
4998120410502000001;-49.98333333;VOTUPORANGA (C) - SP;-20.41666666
3500107000065400001;-35.0;W35S07 (E) - PB;-7.0
3500108000066400001;-35.0;W35S08 (E) - PE;-8.0
3600106000176400001;-36.0;W36S06 (E) - RN;-6.0
3600107000557400001;-36.0;W36S07 (E) - PB;-7.0
3600108000303400001;-36.0;W36S08 (E) - PE;-8.0
3600109000453400001;-36.0;W36S09 (E) - AL;-9.0
3700105000161400001;-37.0;W37S05 (E) - RN;-5.0
3700106000099400001;-37.0;W37S06 (E) - RN;-6.0
3700107000659400001;-37.0;W37S07 (E) - PB;-7.0
3700108000623400001;-37.0;W37S08 (E) - PB;-8.0
3700109000457400001;-37.0;W37S09 (E) - PE;-9.0
3700110000080400001;-37.0;W37S10 (E) - SE;-10.0
3800105000042400001;-38.0;W38S05 (E) - CE;-5.0
3800106000335400001;-38.0;W38S06 (E) - RN;-6.0
3800107000293400001;-38.0;W38S07 (E) - PB;-7.0
3800108000608400001;-38.0;W38S08 (E) - PE;-8.0
3800109000701400001;-38.0;W38S09 (E) - PE;-9.0
3800110000305400001;-38.0;W38S10 (E) - BA;-10.0
3800111000305400001;-38.0;W38S11 (E) - SE;-11.0
3800112000149400001;-38.0;W38S12 (E) - BA;-12.0
3900104000185400001;-39.0;W39S04 (E) - CE;-4.0
3900105000321400001;-39.0;W39S05 (E) - CE;-5.0
3900106000356400001;-39.0;W39S06 (E) - CE;-6.0
3900107000280400001;-39.0;W39S07 (E) - CE;-7.0
3900108000554400001;-39.0;W39S08 (E) - PE;-8.0
3900109000421400001;-39.0;W39S09 (E) - BA;-9.0
3900110000451400001;-39.0;W39S10 (E) - BA;-10.0
3900111000244400001;-39.0;W39S11 (E) - BA;-11.0
3900112000238400001;-39.0;W39S12 (E) - BA;-12.0
3900113000119400001;-39.0;W39S13 (E) - BA;-13.0
3900114000001400001;-39.0;W39S14 (E) - BA;-14.0
3900116000044400001;-39.0;W39S16 (E) - BA;-16.0
4000103000032400001;-40.0;W40S03 (E) - CE;-3.0
4000104000272400001;-40.0;W40S04 (E) - CE;-4.0
4000105000773400001;-40.0;W40S05 (E) - CE;-5.0
4000106000605400001;-40.0;W40S06 (E) - CE;-6.0
4000107000590400001;-40.0;W40S07 (E) - CE;-7.0
4000108000455400001;-40.0;W40S08 (E) - PE;-8.0
4000109000318400001;-40.0;W40S09 (E) - PE;-9.0
4000110000458400001;-40.0;W40S10 (E) - BA;-10.0
4000111000349400001;-40.0;W40S11 (E) - BA;-11.0
4000112000420400001;-40.0;W40S12 (E) - BA;-12.0
4000113000609400001;-40.0;W40S13 (E) - BA;-13.0
4000114000296400001;-40.0;W40S14 (E) - BA;-14.0
4000115000319400001;-40.0;W40S15 (E) - BA;-15.0
4000116000112400001;-40.0;W40S16 (E) - BA;-16.0
4000117000580400001;-40.0;W40S17 (E) - BA;-17.0
4000118000057400001;-40.0;W40S18 (E) - BA;-18.0
4000119000042400001;-40.0;W40S19 (E) - ES;-19.0
4100103000081400001;-41.0;W41S03 (E) - CE;-3.0
4100104000765400001;-41.0;W41S04 (E) - CE;-4.0
4100105000537400001;-41.0;W41S05 (E) - CE;-5.0
4100106000746400001;-41.0;W41S06 (E) - PI;-6.0
4100107000302400001;-41.0;W41S07 (E) - PI;-7.0
4100108000466400001;-41.0;W41S08 (E) - PI;-8.0
4100109000319400001;-41.0;W41S09 (E) - BA;-9.0
4100110000768400001;-41.0;W41S10 (E) - BA;-10.0
4100111000589400001;-41.0;W41S11 (E) - BA;-11.0
4100112000754400001;-41.0;W41S12 (E) - BA;-12.0
4100113000437400001;-41.0;W41S13 (E) - BA;-13.0
4100114000288400001;-41.0;W41S14 (E) - BA;-14.0
4100115000907400001;-41.0;W41S15 (E) - BA;-15.0
4100116000644400001;-41.0;W41S16 (E) - MG;-16.0
4100117000289400001;-41.0;W41S17 (E) - MG;-17.0
4100118000305400001;-41.0;W41S18 (E) - MG;-18.0
4100119000617400001;-41.0;W41S19 (E) - ES;-19.0
4100120000582400001;-41.0;W41S20 (E) - ES;-20.0
4100121000066400001;-41.0;W41S21 (E) - ES;-21.0
4100122000001400001;-41.0;W41S22 (E) - RJ;-22.0
4200103000010400001;-42.0;W42S03 (E) - MA;-3.0
4200104000080400001;-42.0;W42S04 (E) - PI;-4.0
4200105000192400001;-42.0;W42S05 (E) - PI;-5.0
4200106000269400001;-42.0;W42S06 (E) - PI;-6.0
4200107000202400001;-42.0;W42S07 (E) - PI;-7.0
4200108000305400001;-42.0;W42S08 (E) - PI;-8.0
4200109000309400001;-42.0;W42S09 (E) - PI;-9.0
4200110000555400001;-42.0;W42S10 (E) - BA;-10.0
4200111000610400001;-42.0;W42S11 (E) - BA;-11.0
4200112000802400001;-42.0;W42S12 (E) - BA;-12.0
4200113001148400001;-42.0;W42S13 (E) - BA;-13.0
4200114000550400001;-42.0;W42S14 (E) - BA;-14.0
4200115000667400001;-42.0;W42S15 (E) - BA;-15.0
4200116000914400001;-42.0;W42S16 (E) - MG;-16.0
4200117000571400001;-42.0;W42S17 (E) - MG;-17.0
4200118000474400001;-42.0;W42S18 (E) - MG;-18.0
4200119000315400001;-42.0;W42S19 (E) - MG;-19.0
4200120000917400001;-42.0;W42S20 (E) - MG;-20.0
4200121000305400001;-42.0;W42S21 (E) - RJ;-21.0
4200122000588400001;-42.0;W42S22 (E) - RJ;-22.0
4300103000032400001;-43.0;W43S03 (E) - MA;-3.0
4300104000101400001;-43.0;W43S04 (E) - MA;-4.0
4300105000116400001;-43.0;W43S05 (E) - MA;-5.0
4300106000181400001;-43.0;W43S06 (E) - PI;-6.0
4300107000208400001;-43.0;W43S07 (E) - PI;-7.0
4300108000298400001;-43.0;W43S08 (E) - PI;-8.0
4300109000610400001;-43.0;W43S09 (E) - PI;-9.0
4300110000423400001;-43.0;W43S10 (E) - BA;-10.0
4300111000401400001;-43.0;W43S11 (E) - BA;-11.0
4300112000457400001;-43.0;W43S12 (E) - BA;-12.0
4300113000962400001;-43.0;W43S13 (E) - BA;-13.0
4300114000567400001;-43.0;W43S14 (E) - BA;-14.0
4300115000750400001;-43.0;W43S15 (E) - MG;-15.0
4300116000920400001;-43.0;W43S16 (E) - MG;-16.0
4300117000752400001;-43.0;W43S17 (E) - MG;-17.0
4300118000914400001;-43.0;W43S18 (E) - MG;-18.0
4300119000593400001;-43.0;W43S19 (E) - MG;-19.0
4300120000855400001;-43.0;W43S20 (E) - MG;-20.0
4300121000621400001;-43.0;W43S21 (E) - MG;-21.0
4300122000481400001;-43.0;W43S22 (E) - MG;-22.0
4400103000019400001;-44.0;W44S03 (E) - MA;-3.0
4400104000088400001;-44.0;W44S04 (E) - MA;-4.0
4400105000192400001;-44.0;W44S05 (E) - MA;-5.0
4400106000238400001;-44.0;W44S06 (E) - MA;-6.0
4400107000288400001;-44.0;W44S07 (E) - PI;-7.0
4400108000289400001;-44.0;W44S08 (E) - PI;-8.0
4400109000286400001;-44.0;W44S09 (E) - PI;-9.0
4400110000409400001;-44.0;W44S10 (E) - PI;-10.0
4400111000581400001;-44.0;W44S11 (E) - BA;-11.0
4400112000622400001;-44.0;W44S12 (E) - BA;-12.0
4400113000522400001;-44.0;W44S13 (E) - BA;-13.0
4400114000482400001;-44.0;W44S14 (E) - BA;-14.0
4400115000454400001;-44.0;W44S15 (E) - MG;-15.0
4400116000665400001;-44.0;W44S16 (E) - MG;-16.0
4400117000914400001;-44.0;W44S17 (E) - MG;-17.0
4400118001219400001;-44.0;W44S18 (E) - MG;-18.0
4400119000632400001;-44.0;W44S19 (E) - MG;-19.0
4400120001145400001;-44.0;W44S20 (E) - MG;-20.0
4400121000977400001;-44.0;W44S21 (E) - MG;-21.0
4400122001208400001;-44.0;W44S22 (E) - MG;-22.0
4500102000034400001;-45.0;W45S02 (E) - MA;-2.0
4500103000043400001;-45.0;W45S03 (E) - MA;-3.0
4500104000017400001;-45.0;W45S04 (E) - MA;-4.0
4500105000083400001;-45.0;W45S05 (E) - MA;-5.0
4500106000266400001;-45.0;W45S06 (E) - MA;-6.0
4500107000201400001;-45.0;W45S07 (E) - MA;-7.0
4500108000301400001;-45.0;W45S08 (E) - PI;-8.0
4500109000377400001;-45.0;W45S09 (E) - PI;-9.0
4500110000487400001;-45.0;W45S10 (E) - PI;-10.0
4500111000481400001;-45.0;W45S11 (E) - BA;-11.0
4500112000447400001;-45.0;W45S12 (E) - BA;-12.0
4500113000707400001;-45.0;W45S13 (E) - BA;-13.0
4500114000659400001;-45.0;W45S14 (E) - BA;-14.0
4500115000761400001;-45.0;W45S15 (E) - MG;-15.0
4500116000491400001;-45.0;W45S16 (E) - MG;-16.0
4500117000610400001;-45.0;W45S17 (E) - MG;-17.0
4500118000641400001;-45.0;W45S18 (E) - MG;-18.0
4500119000643400001;-45.0;W45S19 (E) - MG;-19.0
4500120000853400001;-45.0;W45S20 (E) - MG;-20.0
4500121000914400001;-45.0;W45S21 (E) - MG;-21.0
4500122000913400001;-45.0;W45S22 (E) - MG;-22.0
4500123000920400001;-45.0;W45S23 (E) - SP;-23.0
4600102000033400001;-46.0;W46S02 (E) - MA;-2.0
4600103000087400001;-46.0;W46S03 (E) - MA;-3.0
4600104000094400001;-46.0;W46S04 (E) - MA;-4.0
4600105000207400001;-46.0;W46S05 (E) - MA;-5.0
4600106000193400001;-46.0;W46S06 (E) - MA;-6.0
4600107000462400001;-46.0;W46S07 (E) - MA;-7.0
4600108000305400001;-46.0;W46S08 (E) - MA;-8.0
4600109000279400001;-46.0;W46S09 (E) - MA;-9.0
4600110000474400001;-46.0;W46S10 (E) - MA;-10.0
4600111000766400001;-46.0;W46S11 (E) - BA;-11.0
4600112000833400001;-46.0;W46S12 (E) - BA;-12.0
4600113000822400001;-46.0;W46S13 (E) - BA;-13.0
4600114000847400001;-46.0;W46S14 (E) - BA;-14.0
4600115000886400001;-46.0;W46S15 (E) - MG;-15.0
4600116000511400001;-46.0;W46S16 (E) - MG;-16.0
4600117000592400001;-46.0;W46S17 (E) - MG;-17.0
4600118000826400001;-46.0;W46S18 (E) - MG;-18.0
4600119000916400001;-46.0;W46S19 (E) - MG;-19.0
4600120000856400001;-46.0;W46S20 (E) - MG;-20.0
4600121000721400001;-46.0;W46S21 (E) - MG;-21.0
4600122001240400001;-46.0;W46S22 (E) - MG;-22.0
4600123000849400001;-46.0;W46S23 (E) - SP;-23.0
4700101000002400001;-47.0;W47S01 (E) - PA;-1.0
4700102000054400001;-47.0;W47S02 (E) - PA;-2.0
4700103000091400001;-47.0;W47S03 (E) - PA;-3.0
4700104000221400001;-47.0;W47S04 (E) - MA;-4.0
4700105000237400001;-47.0;W47S05 (E) - MA;-5.0
4700106000274400001;-47.0;W47S06 (E) - MA;-6.0
4700107000264400001;-47.0;W47S07 (E) - MA;-7.0
4700108000281400001;-47.0;W47S08 (E) - MA;-8.0
4700109000618400001;-47.0;W47S09 (E) - MA;-9.0
4700110000289400001;-47.0;W47S10 (E) - TO;-10.0
4700111000467400001;-47.0;W47S11 (E) - TO;-11.0
4700112000623400001;-47.0;W47S12 (E) - TO;-12.0
4700113000616400001;-47.0;W47S13 (E) - TO;-13.0
4700114000468400001;-47.0;W47S14 (E) - GO;-14.0
4700115000582400001;-47.0;W47S15 (E) - GO;-15.0
4700116000885400001;-47.0;W47S16 (E) - MG;-16.0
4700117000858400001;-47.0;W47S17 (E) - MG;-17.0
4700118000743400001;-47.0;W47S18 (E) - MG;-18.0
4700119000920400001;-47.0;W47S19 (E) - MG;-19.0
4700120001053400001;-47.0;W47S20 (E) - MG;-20.0
4700121000998400001;-47.0;W47S21 (E) - MG;-21.0
4700122000610400001;-47.0;W47S22 (E) - SP;-22.0
4700123000800400001;-47.0;W47S23 (E) - SP;-23.0
4700124000847400001;-47.0;W47S24 (E) - SP;-24.0
4800101000009400001;-48.0;W48S01 (E) - PA;-1.0
4800102000044400001;-48.0;W48S02 (E) - PA;-2.0
4800103000084400001;-48.0;W48S03 (E) - PA;-3.0
4800104000107400001;-48.0;W48S04 (E) - PA;-4.0
4800105000314400001;-48.0;W48S05 (E) - MA;-5.0
4800106000269400001;-48.0;W48S06 (E) - TO;-6.0
4800107000258400001;-48.0;W48S07 (E) - TO;-7.0
4800108000105400001;-48.0;W48S08 (E) - TO;-8.0
4800109000207400001;-48.0;W48S09 (E) - TO;-9.0
4800110000351400001;-48.0;W48S10 (E) - TO;-10.0
4800111000380400001;-48.0;W48S11 (E) - TO;-11.0
4800112000480400001;-48.0;W48S12 (E) - TO;-12.0
4800113000345400001;-48.0;W48S13 (E) - TO;-13.0
4800114000554400001;-48.0;W48S14 (E) - GO;-14.0
4800115000986400001;-48.0;W48S15 (E) - GO;-15.0
4800116001228400001;-48.0;W48S16 (E) - DF;-16.0
4800117000710400001;-48.0;W48S17 (E) - GO;-17.0
4800118000853400001;-48.0;W48S18 (E) - GO;-18.0
4800119000661400001;-48.0;W48S19 (E) - MG;-19.0
4800120000582400001;-48.0;W48S20 (E) - MG;-20.0
4800121000546400001;-48.0;W48S21 (E) - SP;-21.0
4800122000731400001;-48.0;W48S22 (E) - SP;-22.0
4800123000500400001;-48.0;W48S23 (E) - SP;-23.0
4800124000737400001;-48.0;W48S24 (E) - SP;-24.0
4800125000039400001;-48.0;W48S25 (E) - SP;-25.0
4900101000009400001;-49.0;W49S01 (E) - PA;-1.0
4900102000009400001;-49.0;W49S02 (E) - PA;-2.0
4900103000098400001;-49.0;W49S03 (E) - PA;-3.0
4900104000100400001;-49.0;W49S04 (E) - PA;-4.0
4900105000207400001;-49.0;W49S05 (E) - PA;-5.0
4900106000096400001;-49.0;W49S06 (E) - PA;-6.0
4900107000241400001;-49.0;W49S07 (E) - TO;-7.0
4900108000298400001;-49.0;W49S08 (E) - TO;-8.0
4900109000280400001;-49.0;W49S09 (E) - TO;-9.0
4900110000305400001;-49.0;W49S10 (E) - TO;-10.0
4900111000303400001;-49.0;W49S11 (E) - TO;-11.0
4900112000373400001;-49.0;W49S12 (E) - TO;-12.0
4900113000465400001;-49.0;W49S13 (E) - GO;-13.0
4900114000774400001;-49.0;W49S14 (E) - GO;-14.0
4900115000912400001;-49.0;W49S15 (E) - GO;-15.0
4900116000910400001;-49.0;W49S16 (E) - GO;-16.0
4900117000789400001;-49.0;W49S17 (E) - GO;-17.0
4900118000641400001;-49.0;W49S18 (E) - GO;-18.0
4900119000624400001;-49.0;W49S19 (E) - MG;-19.0
4900120000557400001;-49.0;W49S20 (E) - MG;-20.0
4900121000578400001;-49.0;W49S21 (E) - SP;-21.0
4900122000463400001;-49.0;W49S22 (E) - SP;-22.0
4900123000791400001;-49.0;W49S23 (E) - SP;-23.0
4900124000776400001;-49.0;W49S24 (E) - SP;-24.0
4900125000957400001;-49.0;W49S25 (E) - PR;-25.0
4900126000901400001;-49.0;W49S26 (E) - PR;-26.0
4900127000300400001;-49.0;W49S27 (E) - SC;-27.0
4900128000563400001;-49.0;W49S28 (E) - SC;-28.0
5000000000001400001;-50.0;W50N00 (E) - PA;0.0
5000001000001400001;-50.0;W50N01 (E) - AP;1.0
5000101000002400001;-50.0;W50S01 (E) - PA;-1.0
5000102000001400001;-50.0;W50S02 (E) - PA;-2.0
5000103000046400001;-50.0;W50S03 (E) - PA;-3.0
5000104000098400001;-50.0;W50S04 (E) - PA;-4.0
5000105000203400001;-50.0;W50S05 (E) - PA;-5.0
5000106000198400001;-50.0;W50S06 (E) - PA;-6.0
5000107000231400001;-50.0;W50S07 (E) - PA;-7.0
5000108000295400001;-50.0;W50S08 (E) - PA;-8.0
5000109000198400001;-50.0;W50S09 (E) - PA;-9.0
5000110000184400001;-50.0;W50S10 (E) - TO;-10.0
5000111000192400001;-50.0;W50S11 (E) - TO;-11.0
5000112000221400001;-50.0;W50S12 (E) - TO;-12.0
5000113000596400001;-50.0;W50S13 (E) - GO;-13.0
5000114000353400001;-50.0;W50S14 (E) - GO;-14.0
5000115000744400001;-50.0;W50S15 (E) - GO;-15.0
5000116000777400001;-50.0;W50S16 (E) - GO;-16.0
5000117000608400001;-50.0;W50S17 (E) - GO;-17.0
5000118000606400001;-50.0;W50S18 (E) - GO;-18.0
5000119000586400001;-50.0;W50S19 (E) - MG;-19.0
5000120000410400001;-50.0;W50S20 (E) - SP;-20.0
5000121000440400001;-50.0;W50S21 (E) - SP;-21.0
5000122000455400001;-50.0;W50S22 (E) - SP;-22.0
5000123000492400001;-50.0;W50S23 (E) - PR;-23.0
5000124000608400001;-50.0;W50S24 (E) - PR;-24.0
5000125000926400001;-50.0;W50S25 (E) - PR;-25.0
5000126000814400001;-50.0;W50S26 (E) - PR;-26.0
5000127000568400001;-50.0;W50S27 (E) - SC;-27.0
5000128001213400001;-50.0;W50S28 (E) - SC;-28.0
5000129000947400001;-50.0;W50S29 (E) - RS;-29.0
5100001000037400001;-51.0;W51N01 (E) - AP;1.0
5100002000060400001;-51.0;W51N02 (E) - AP;2.0
5100003000001400001;-51.0;W51N03 (E) - AP;3.0
5100101000001400001;-51.0;W51S01 (E) - PA;-1.0
5100102000001400001;-51.0;W51S02 (E) - PA;-2.0
5100103000042400001;-51.0;W51S03 (E) - PA;-3.0
5100104000116400001;-51.0;W51S04 (E) - PA;-4.0
5100105000305400001;-51.0;W51S05 (E) - PA;-5.0
5100106000188400001;-51.0;W51S06 (E) - PA;-6.0
5100107000300400001;-51.0;W51S07 (E) - PA;-7.0
5100108000307400001;-51.0;W51S08 (E) - PA;-8.0
5100109000464400001;-51.0;W51S09 (E) - PA;-9.0
5100110000305400001;-51.0;W51S10 (E) - MT;-10.0
5100111000236400001;-51.0;W51S11 (E) - MT;-11.0
5100112000351400001;-51.0;W51S12 (E) - MT;-12.0
5100113000236400001;-51.0;W51S13 (E) - MT;-13.0
5100114000315400001;-51.0;W51S14 (E) - MT;-14.0
5100115000338400001;-51.0;W51S15 (E) - GO;-15.0
5100116000613400001;-51.0;W51S16 (E) - GO;-16.0
5100117000691400001;-51.0;W51S17 (E) - GO;-17.0
5100118000703400001;-51.0;W51S18 (E) - GO;-18.0
5100119000436400001;-51.0;W51S19 (E) - GO;-19.0
5100120000335400001;-51.0;W51S20 (E) - MG;-20.0
5100121000401400001;-51.0;W51S21 (E) - SP;-21.0
5100122000400400001;-51.0;W51S22 (E) - SP;-22.0
5100123000375400001;-51.0;W51S23 (E) - PR;-23.0
5100124000594400001;-51.0;W51S24 (E) - PR;-24.0
5100125000594400001;-51.0;W51S25 (E) - PR;-25.0
5100126000918400001;-51.0;W51S26 (E) - PR;-26.0
5100127000941400001;-51.0;W51S27 (E) - SC;-27.0
5100128000905400001;-51.0;W51S28 (E) - RS;-28.0
5100129000831400001;-51.0;W51S29 (E) - RS;-29.0
5100130000069400001;-51.0;W51S30 (E) - RS;-30.0
5200000000082400001;-52.0;W52N00 (E) - AP;0.0
5200001000157400001;-52.0;W52N01 (E) - AP;1.0
5200002000167400001;-52.0;W52N02 (E) - AP;2.0
5200003000073400001;-52.0;W52N03 (E) - AP;3.0
5200101000064400001;-52.0;W52S01 (E) - AP;-1.0
5200102000004400001;-52.0;W52S02 (E) - PA;-2.0
5200103000040400001;-52.0;W52S03 (E) - PA;-3.0
5200104000103400001;-52.0;W52S04 (E) - PA;-4.0
5200105000324400001;-52.0;W52S05 (E) - PA;-5.0
5200106000193400001;-52.0;W52S06 (E) - PA;-6.0
5200107000314400001;-52.0;W52S07 (E) - PA;-7.0
5200108000304400001;-52.0;W52S08 (E) - PA;-8.0
5200109000294400001;-52.0;W52S09 (E) - PA;-9.0
5200110000291400001;-52.0;W52S10 (E) - MT;-10.0
5200111000303400001;-52.0;W52S11 (E) - MT;-11.0
5200112000305400001;-52.0;W52S12 (E) - MT;-12.0
5200113000337400001;-52.0;W52S13 (E) - MT;-13.0
5200114000457400001;-52.0;W52S14 (E) - MT;-14.0
5200115000308400001;-52.0;W52S15 (E) - MT;-15.0
5200116000505400001;-52.0;W52S16 (E) - GO;-16.0
5200117000761400001;-52.0;W52S17 (E) - GO;-17.0
5200118000630400001;-52.0;W52S18 (E) - GO;-18.0
5200119000564400001;-52.0;W52S19 (E) - MS;-19.0
5200120000374400001;-52.0;W52S20 (E) - MS;-20.0
5200121000303400001;-52.0;W52S21 (E) - MS;-21.0
5200122000305400001;-52.0;W52S22 (E) - SP;-22.0
5200123000380400001;-52.0;W52S23 (E) - PR;-23.0
5200124000350400001;-52.0;W52S24 (E) - PR;-24.0
5200125000829400001;-52.0;W52S25 (E) - PR;-25.0
5200126000606400001;-52.0;W52S26 (E) - PR;-26.0
5200127000927400001;-52.0;W52S27 (E) - SC;-27.0
5200128000611400001;-52.0;W52S28 (E) - RS;-28.0
5200129000451400001;-52.0;W52S29 (E) - RS;-29.0
5200130000058400001;-52.0;W52S30 (E) - RS;-30.0
5200131000028400001;-52.0;W52S31 (E) - RS;-31.0
5200132000001400001;-52.0;W52S32 (E) - RS;-32.0
5300000000094400001;-53.0;W53N00 (E) - PA;0.0
5300001000189400001;-53.0;W53N01 (E) - AP;1.0
5300002000453400001;-53.0;W53N02 (E) - AP;2.0
5300101000227400001;-53.0;W53S01 (E) - PA;-1.0
5300102000031400001;-53.0;W53S02 (E) - PA;-2.0
5300103000100400001;-53.0;W53S03 (E) - PA;-3.0
5300104000074400001;-53.0;W53S04 (E) - PA;-4.0
5300105000200400001;-53.0;W53S05 (E) - PA;-5.0
5300106000185400001;-53.0;W53S06 (E) - PA;-6.0
5300107000411400001;-53.0;W53S07 (E) - PA;-7.0
5300108000396400001;-53.0;W53S08 (E) - PA;-8.0
5300109000460400001;-53.0;W53S09 (E) - PA;-9.0
5300110000204400001;-53.0;W53S10 (E) - MT;-10.0
5300111000236400001;-53.0;W53S11 (E) - MT;-11.0
5300112000303400001;-53.0;W53S12 (E) - MT;-12.0
5300113000295400001;-53.0;W53S13 (E) - MT;-13.0
5300114000483400001;-53.0;W53S14 (E) - MT;-14.0
5300115000542400001;-53.0;W53S15 (E) - MT;-15.0
5300116000418400001;-53.0;W53S16 (E) - MT;-16.0
5300117000561400001;-53.0;W53S17 (E) - GO;-17.0
5300118000854400001;-53.0;W53S18 (E) - GO;-18.0
5300119000614400001;-53.0;W53S19 (E) - MS;-19.0
5300120000338400001;-53.0;W53S20 (E) - MS;-20.0
5300121000428400001;-53.0;W53S21 (E) - MS;-21.0
5300122000307400001;-53.0;W53S22 (E) - MS;-22.0
5300123000352400001;-53.0;W53S23 (E) - PR;-23.0
5300124000399400001;-53.0;W53S24 (E) - PR;-24.0
5300125000886400001;-53.0;W53S25 (E) - PR;-25.0
5300126000578400001;-53.0;W53S26 (E) - PR;-26.0
5300127000298400001;-53.0;W53S27 (E) - SC;-27.0
5300128000480400001;-53.0;W53S28 (E) - RS;-28.0
5300129000407400001;-53.0;W53S29 (E) - RS;-29.0
5300130000033400001;-53.0;W53S30 (E) - RS;-30.0
5300131000203400001;-53.0;W53S31 (E) - RS;-31.0
5300133000023400001;-53.0;W53S33 (E) - RS;-33.0
5400000000237400001;-54.0;W54N00 (E) - PA;0.0
5400001000247400001;-54.0;W54N01 (E) - PA;1.0
5400002000308400001;-54.0;W54N02 (E) - AP;2.0
5400101000314400001;-54.0;W54S01 (E) - PA;-1.0
5400102000007400001;-54.0;W54S02 (E) - PA;-2.0
5400103000114400001;-54.0;W54S03 (E) - PA;-3.0
5400104000100400001;-54.0;W54S04 (E) - PA;-4.0
5400105000217400001;-54.0;W54S05 (E) - PA;-5.0
5400106000201400001;-54.0;W54S06 (E) - PA;-6.0
5400107000253400001;-54.0;W54S07 (E) - PA;-7.0
5400108000406400001;-54.0;W54S08 (E) - PA;-8.0
5400109000389400001;-54.0;W54S09 (E) - PA;-9.0
5400110000390400001;-54.0;W54S10 (E) - MT;-10.0
5400111000272400001;-54.0;W54S11 (E) - MT;-11.0
5400112000270400001;-54.0;W54S12 (E) - MT;-12.0
5400113000294400001;-54.0;W54S13 (E) - MT;-13.0
5400114000590400001;-54.0;W54S14 (E) - MT;-14.0
5400115000690400001;-54.0;W54S15 (E) - MT;-15.0
5400116000354400001;-54.0;W54S16 (E) - MT;-16.0
5400117000610400001;-54.0;W54S17 (E) - MT;-17.0
5400118000380400001;-54.0;W54S18 (E) - MS;-18.0
5400119000419400001;-54.0;W54S19 (E) - MS;-19.0
5400120000477400001;-54.0;W54S20 (E) - MS;-20.0
5400121000432400001;-54.0;W54S21 (E) - MS;-21.0
5400122000305400001;-54.0;W54S22 (E) - MS;-22.0
5400123000288400001;-54.0;W54S23 (E) - MS;-23.0
5400124000220400001;-54.0;W54S24 (E) - PR;-24.0
5400125000450400001;-54.0;W54S25 (E) - PR;-25.0
5400128000399400001;-54.0;W54S28 (E) - RS;-28.0
5400129000481400001;-54.0;W54S29 (E) - RS;-29.0
5400130000073400001;-54.0;W54S30 (E) - RS;-30.0
5400131000311400001;-54.0;W54S31 (E) - RS;-31.0
5500000000292400001;-55.0;W55N00 (E) - PA;0.0
5500001000294400001;-55.0;W55N01 (E) - PA;1.0
5500002000300400001;-55.0;W55N02 (E) - PA;2.0
5500101000197400001;-55.0;W55S01 (E) - PA;-1.0
5500102000050400001;-55.0;W55S02 (E) - PA;-2.0
5500103000094400001;-55.0;W55S03 (E) - PA;-3.0
5500104000100400001;-55.0;W55S04 (E) - PA;-4.0
5500105000200400001;-55.0;W55S05 (E) - PA;-5.0
5500106000180400001;-55.0;W55S06 (E) - PA;-6.0
5500107000162400001;-55.0;W55S07 (E) - PA;-7.0
5500108000300400001;-55.0;W55S08 (E) - PA;-8.0
5500109000494400001;-55.0;W55S09 (E) - PA;-9.0
5500110000276400001;-55.0;W55S10 (E) - MT;-10.0
5500111000506400001;-55.0;W55S11 (E) - MT;-11.0
5500112000390400001;-55.0;W55S12 (E) - MT;-12.0
5500113000325400001;-55.0;W55S13 (E) - MT;-13.0
5500114000446400001;-55.0;W55S14 (E) - MT;-14.0
5500115000703400001;-55.0;W55S15 (E) - MT;-15.0
5500116000305400001;-55.0;W55S16 (E) - MT;-16.0
5500117000283400001;-55.0;W55S17 (E) - MT;-17.0
5500118000214400001;-55.0;W55S18 (E) - MS;-18.0
5500119000592400001;-55.0;W55S19 (E) - MS;-19.0
5500120000306400001;-55.0;W55S20 (E) - MS;-20.0
5500121000446400001;-55.0;W55S21 (E) - MS;-21.0
5500122000403400001;-55.0;W55S22 (E) - MS;-22.0
5500123000399400001;-55.0;W55S23 (E) - MS;-23.0
5500128000226400001;-55.0;W55S28 (E) - RS;-28.0
5500129000294400001;-55.0;W55S29 (E) - RS;-29.0
5500130000114400001;-55.0;W55S30 (E) - RS;-30.0
5500131000123400001;-55.0;W55S31 (E) - RS;-31.0
5600000000381400001;-56.0;W56N00 (E) - PA;0.0
5600001000292400001;-56.0;W56N01 (E) - PA;1.0
5600101000312400001;-56.0;W56S01 (E) - PA;-1.0
5600102000009400001;-56.0;W56S02 (E) - PA;-2.0
5600103000083400001;-56.0;W56S03 (E) - PA;-3.0
5600104000099400001;-56.0;W56S04 (E) - PA;-4.0
5600105000213400001;-56.0;W56S05 (E) - PA;-5.0
5600106000170400001;-56.0;W56S06 (E) - PA;-6.0
5600107000200400001;-56.0;W56S07 (E) - PA;-7.0
5600108000401400001;-56.0;W56S08 (E) - PA;-8.0
5600109000188400001;-56.0;W56S09 (E) - PA;-9.0
5600110000325400001;-56.0;W56S10 (E) - MT;-10.0
5600111000302400001;-56.0;W56S11 (E) - MT;-11.0
5600112000298400001;-56.0;W56S12 (E) - MT;-12.0
5600113000335400001;-56.0;W56S13 (E) - MT;-13.0
5600114000400400001;-56.0;W56S14 (E) - MT;-14.0
5600115000361400001;-56.0;W56S15 (E) - MT;-15.0
5600116000119400001;-56.0;W56S16 (E) - MT;-16.0
5600117000129400001;-56.0;W56S17 (E) - MT;-17.0
5600118000140400001;-56.0;W56S18 (E) - MS;-18.0
5600119000101400001;-56.0;W56S19 (E) - MS;-19.0
5600120000175400001;-56.0;W56S20 (E) - MS;-20.0
5600121000191400001;-56.0;W56S21 (E) - MS;-21.0
5600122000447400001;-56.0;W56S22 (E) - MS;-22.0
5600129000061400001;-56.0;W56S29 (E) - RS;-29.0
5600130000165400001;-56.0;W56S30 (E) - RS;-30.0
5600131000260400001;-56.0;W56S31 (E) - RS;-31.0
5700000000300400001;-57.0;W57N00 (E) - PA;0.0
5700001000184400001;-57.0;W57N01 (E) - PA;1.0
5700101000176400001;-57.0;W57S01 (E) - PA;-1.0
5700102000071400001;-57.0;W57S02 (E) - AM;-2.0
5700103000020400001;-57.0;W57S03 (E) - AM;-3.0
5700104000100400001;-57.0;W57S04 (E) - PA;-4.0
5700105000089400001;-57.0;W57S05 (E) - PA;-5.0
5700106000088400001;-57.0;W57S06 (E) - PA;-6.0
5700107000217400001;-57.0;W57S07 (E) - PA;-7.0
5700108000283400001;-57.0;W57S08 (E) - PA;-8.0
5700109000204400001;-57.0;W57S09 (E) - PA;-9.0
5700110000197400001;-57.0;W57S10 (E) - MT;-10.0
5700111000236400001;-57.0;W57S11 (E) - MT;-11.0
5700112000316400001;-57.0;W57S12 (E) - MT;-12.0
5700113000404400001;-57.0;W57S13 (E) - MT;-13.0
5700114000500400001;-57.0;W57S14 (E) - MT;-14.0
5700115000188400001;-57.0;W57S15 (E) - MT;-15.0
5700116000152400001;-57.0;W57S16 (E) - MT;-16.0
5700117000121400001;-57.0;W57S17 (E) - MT;-17.0
5700118000108400001;-57.0;W57S18 (E) - MS;-18.0
5700119000087400001;-57.0;W57S19 (E) - MS;-19.0
5700120000300400001;-57.0;W57S20 (E) - MS;-20.0
5700121000245400001;-57.0;W57S21 (E) - MS;-21.0
5700122000250400001;-57.0;W57S22 (E) - MS;-22.0
5700130000062400001;-57.0;W57S30 (E) - RS;-30.0
5800000000305400001;-58.0;W58N00 (E) - PA;0.0
5800001000409400001;-58.0;W58N01 (E) - PA;1.0
5800101000092400001;-58.0;W58S01 (E) - PA;-1.0
5800102000100400001;-58.0;W58S02 (E) - AM;-2.0
5800103000023400001;-58.0;W58S03 (E) - AM;-3.0
5800104000100400001;-58.0;W58S04 (E) - AM;-4.0
5800105000089400001;-58.0;W58S05 (E) - AM;-5.0
5800106000100400001;-58.0;W58S06 (E) - PA;-6.0
5800107000099400001;-58.0;W58S07 (E) - PA;-7.0
5800108000152400001;-58.0;W58S08 (E) - MT;-8.0
5800109000182400001;-58.0;W58S09 (E) - MT;-9.0
5800110000287400001;-58.0;W58S10 (E) - MT;-10.0
5800111000400400001;-58.0;W58S11 (E) - MT;-11.0
5800112000313400001;-58.0;W58S12 (E) - MT;-12.0
5800113000400400001;-58.0;W58S13 (E) - MT;-13.0
5800114000614400001;-58.0;W58S14 (E) - MT;-14.0
5800115000228400001;-58.0;W58S15 (E) - MT;-15.0
5800116000177400001;-58.0;W58S16 (E) - MT;-16.0
5800117000151400001;-58.0;W58S17 (E) - MT;-17.0
5900000000234400001;-59.0;W59N00 (E) - AM;0.0
5900001000404400001;-59.0;W59N01 (E) - RR;1.0
5900101000103400001;-59.0;W59S01 (E) - AM;-1.0
5900102000100400001;-59.0;W59S02 (E) - AM;-2.0
5900103000051400001;-59.0;W59S03 (E) - AM;-3.0
5900104000056400001;-59.0;W59S04 (E) - AM;-4.0
5900105000095400001;-59.0;W59S05 (E) - AM;-5.0
5900106000100400001;-59.0;W59S06 (E) - AM;-6.0
5900107000088400001;-59.0;W59S07 (E) - AM;-7.0
5900108000101400001;-59.0;W59S08 (E) - AM;-8.0
5900109000145400001;-59.0;W59S09 (E) - MT;-9.0
5900110000174400001;-59.0;W59S10 (E) - MT;-10.0
5900111000313400001;-59.0;W59S11 (E) - MT;-11.0
5900112000400400001;-59.0;W59S12 (E) - MT;-12.0
5900113000404400001;-59.0;W59S13 (E) - MT;-13.0
5900114000580400001;-59.0;W59S14 (E) - MT;-14.0
5900115000572400001;-59.0;W59S15 (E) - MT;-15.0
5900116000278400001;-59.0;W59S16 (E) - MT;-16.0
6000000000189400001;-60.0;W60N00 (E) - AM;0.0
6000001000225400001;-60.0;W60N01 (E) - RR;1.0
6000002000190400001;-60.0;W60N02 (E) - RR;2.0
6000003000190400001;-60.0;W60N03 (E) - RR;3.0
6000004000209400001;-60.0;W60N04 (E) - RR;4.0
6000101000100400001;-60.0;W60S01 (E) - AM;-1.0
6000102000100400001;-60.0;W60S02 (E) - AM;-2.0
6000103000055400001;-60.0;W60S03 (E) - AM;-3.0
6000104000060400001;-60.0;W60S04 (E) - AM;-4.0
6000105000098400001;-60.0;W60S05 (E) - AM;-5.0
6000106000074400001;-60.0;W60S06 (E) - AM;-6.0
6000107000100400001;-60.0;W60S07 (E) - AM;-7.0
6000108000100400001;-60.0;W60S08 (E) - AM;-8.0
6000109000193400001;-60.0;W60S09 (E) - MT;-9.0
6000110000202400001;-60.0;W60S10 (E) - MT;-10.0
6000111000278400001;-60.0;W60S11 (E) - MT;-11.0
6000112000401400001;-60.0;W60S12 (E) - RO;-12.0
6000113000581400001;-60.0;W60S13 (E) - MT;-13.0
6000114000248400001;-60.0;W60S14 (E) - MT;-14.0
6000115000199400001;-60.0;W60S15 (E) - MT;-15.0
6000116000249400001;-60.0;W60S16 (E) - MT;-16.0
6100000000097400001;-61.0;W61N00 (E) - RR;0.0
6100001000076400001;-61.0;W61N01 (E) - RR;1.0
6100002000069400001;-61.0;W61N02 (E) - RR;2.0
6100003000092400001;-61.0;W61N03 (E) - RR;3.0
6100004000315400001;-61.0;W61N04 (E) - RR;4.0
6100101000094400001;-61.0;W61S01 (E) - AM;-1.0
6100102000043400001;-61.0;W61S02 (E) - AM;-2.0
6100103000027400001;-61.0;W61S03 (E) - AM;-3.0
6100104000033400001;-61.0;W61S04 (E) - AM;-4.0
6100105000082400001;-61.0;W61S05 (E) - AM;-5.0
6100106000100400001;-61.0;W61S06 (E) - AM;-6.0
6100107000063400001;-61.0;W61S07 (E) - AM;-7.0
6100108000078400001;-61.0;W61S08 (E) - AM;-8.0
6100109000083400001;-61.0;W61S09 (E) - MT;-9.0
6100110000259400001;-61.0;W61S10 (E) - MT;-10.0
6100111000187400001;-61.0;W61S11 (E) - RO;-11.0
6100112000300400001;-61.0;W61S12 (E) - RO;-12.0
6100113000332400001;-61.0;W61S13 (E) - RO;-13.0
6200000000069400001;-62.0;W62N00 (E) - RR;0.0
6200001000066400001;-62.0;W62N01 (E) - RR;1.0
6200002000194400001;-62.0;W62N02 (E) - RR;2.0
6200003000299400001;-62.0;W62N03 (E) - RR;3.0
6200004000419400001;-62.0;W62N04 (E) - RR;4.0
6200101000043400001;-62.0;W62S01 (E) - RR;-1.0
6200102000034400001;-62.0;W62S02 (E) - AM;-2.0
6200103000028400001;-62.0;W62S03 (E) - AM;-3.0
6200104000036400001;-62.0;W62S04 (E) - AM;-4.0
6200105000046400001;-62.0;W62S05 (E) - AM;-5.0
6200106000055400001;-62.0;W62S06 (E) - AM;-6.0
6200107000070400001;-62.0;W62S07 (E) - AM;-7.0
6200108000094400001;-62.0;W62S08 (E) - AM;-8.0
6200109000136400001;-62.0;W62S09 (E) - RO;-9.0
6200110000180400001;-62.0;W62S10 (E) - RO;-10.0
6200111000198400001;-62.0;W62S11 (E) - RO;-11.0
6200112000354400001;-62.0;W62S12 (E) - RO;-12.0
6200113000160400001;-62.0;W62S13 (E) - RO;-13.0
6300000000063400001;-63.0;W63N00 (E) - AM;0.0
6300001000144400001;-63.0;W63N01 (E) - AM;1.0
6300002000712400001;-63.0;W63N02 (E) - AM;2.0
6300003000550400001;-63.0;W63N03 (E) - RR;3.0
6300101000038400001;-63.0;W63S01 (E) - AM;-1.0
6300102000036400001;-63.0;W63S02 (E) - AM;-2.0
6300103000037400001;-63.0;W63S03 (E) - AM;-3.0
6300104000038400001;-63.0;W63S04 (E) - AM;-4.0
6300105000046400001;-63.0;W63S05 (E) - AM;-5.0
6300106000100400001;-63.0;W63S06 (E) - AM;-6.0
6300107000102400001;-63.0;W63S07 (E) - AM;-7.0
6300108000077400001;-63.0;W63S08 (E) - RO;-8.0
6300109000100400001;-63.0;W63S09 (E) - RO;-9.0
6300110000192400001;-63.0;W63S10 (E) - RO;-10.0
6300111000299400001;-63.0;W63S11 (E) - RO;-11.0
6300112000162400001;-63.0;W63S12 (E) - RO;-12.0
6400000000062400001;-64.0;W64N00 (E) - AM;0.0
6400001000212400001;-64.0;W64N01 (E) - AM;1.0
6400003001027400001;-64.0;W64N03 (E) - RR;3.0
6400101000038400001;-64.0;W64S01 (E) - AM;-1.0
6400102000039400001;-64.0;W64S02 (E) - AM;-2.0
6400103000040400001;-64.0;W64S03 (E) - AM;-3.0
6400104000046400001;-64.0;W64S04 (E) - AM;-4.0
6400105000043400001;-64.0;W64S05 (E) - AM;-5.0
6400106000074400001;-64.0;W64S06 (E) - AM;-6.0
6400107000101400001;-64.0;W64S07 (E) - AM;-7.0
6400108000100400001;-64.0;W64S08 (E) - AM;-8.0
6400109000084400001;-64.0;W64S09 (E) - RO;-9.0
6400110000202400001;-64.0;W64S10 (E) - RO;-10.0
6400111000176400001;-64.0;W64S11 (E) - RO;-11.0
6400112000143400001;-64.0;W64S12 (E) - RO;-12.0
6500000000084400001;-65.0;W65N00 (E) - AM;0.0
6500001000699400001;-65.0;W65N01 (E) - AM;1.0
6500101000049400001;-65.0;W65S01 (E) - AM;-1.0
6500102000047400001;-65.0;W65S02 (E) - AM;-2.0
6500103000046400001;-65.0;W65S03 (E) - AM;-3.0
6500104000059400001;-65.0;W65S04 (E) - AM;-4.0
6500105000083400001;-65.0;W65S05 (E) - AM;-5.0
6500106000068400001;-65.0;W65S06 (E) - AM;-6.0
6500107000100400001;-65.0;W65S07 (E) - AM;-7.0
6500108000100400001;-65.0;W65S08 (E) - AM;-8.0
6500109000108400001;-65.0;W65S09 (E) - AM;-9.0
6500110000157400001;-65.0;W65S10 (E) - RO;-10.0
6500111000292400001;-65.0;W65S11 (E) - RO;-11.0
6600000000071400001;-66.0;W66N00 (E) - AM;0.0
6600101000058400001;-66.0;W66S01 (E) - AM;-1.0
6600102000057400001;-66.0;W66S02 (E) - AM;-2.0
6600103000057400001;-66.0;W66S03 (E) - AM;-3.0
6600104000067400001;-66.0;W66S04 (E) - AM;-4.0
6600105000091400001;-66.0;W66S05 (E) - AM;-5.0
6600106000080400001;-66.0;W66S06 (E) - AM;-6.0
6600107000100400001;-66.0;W66S07 (E) - AM;-7.0
6600108000091400001;-66.0;W66S08 (E) - AM;-8.0
6600109000100400001;-66.0;W66S09 (E) - AM;-9.0
6700000000222400001;-67.0;W67N00 (E) - AM;0.0
6700001000083400001;-67.0;W67N01 (E) - AM;1.0
6700101000161400001;-67.0;W67S01 (E) - AM;-1.0
6700102000060400001;-67.0;W67S02 (E) - AM;-2.0
6700103000069400001;-67.0;W67S03 (E) - AM;-3.0
6700104000095400001;-67.0;W67S04 (E) - AM;-4.0
6700105000068400001;-67.0;W67S05 (E) - AM;-5.0
6700106000077400001;-67.0;W67S06 (E) - AM;-6.0
6700107000100400001;-67.0;W67S07 (E) - AM;-7.0
6700108000099400001;-67.0;W67S08 (E) - AM;-8.0
6700109000100400001;-67.0;W67S09 (E) - AM;-9.0
6700110000208400001;-67.0;W67S10 (E) - AC;-10.0
6800000000092400001;-68.0;W68N00 (E) - AM;0.0
6800001000099400001;-68.0;W68N01 (E) - AM;1.0
6800101000168400001;-68.0;W68S01 (E) - AM;-1.0
6800102000056400001;-68.0;W68S02 (E) - AM;-2.0
6800103000066400001;-68.0;W68S03 (E) - AM;-3.0
6800104000074400001;-68.0;W68S04 (E) - AM;-4.0
6800105000087400001;-68.0;W68S05 (E) - AM;-5.0
6800106000100400001;-68.0;W68S06 (E) - AM;-6.0
6800107000093400001;-68.0;W68S07 (E) - AM;-7.0
6800108000100400001;-68.0;W68S08 (E) - AM;-8.0
6800109000108400001;-68.0;W68S09 (E) - AM;-9.0
6800110000201400001;-68.0;W68S10 (E) - AC;-10.0
6900000000098400001;-69.0;W69N00 (E) - AM;0.0
6900001000096400001;-69.0;W69N01 (E) - AM;1.0
6900101000099400001;-69.0;W69S01 (E) - AM;-1.0
6900102000100400001;-69.0;W69S02 (E) - AM;-2.0
6900103000074400001;-69.0;W69S03 (E) - AM;-3.0
6900104000075400001;-69.0;W69S04 (E) - AM;-4.0
6900105000096400001;-69.0;W69S05 (E) - AM;-5.0
6900106000100400001;-69.0;W69S06 (E) - AM;-6.0
6900107000100400001;-69.0;W69S07 (E) - AM;-7.0
6900108000200400001;-69.0;W69S08 (E) - AM;-8.0
6900109000193400001;-69.0;W69S09 (E) - AC;-9.0
6900110000165400001;-69.0;W69S10 (E) - AC;-10.0
7000000000208400001;-70.0;W70N00 (E) - AM;0.0
7000105000100400001;-70.0;W70S05 (E) - AM;-5.0
7000106000094400001;-70.0;W70S06 (E) - AM;-6.0
7000107000164400001;-70.0;W70S07 (E) - AM;-7.0
7000108000201400001;-70.0;W70S08 (E) - AM;-8.0
7000109000201400001;-70.0;W70S09 (E) - AC;-9.0
7000110000200400001;-70.0;W70S10 (E) - AC;-10.0
7100105000099400001;-71.0;W71S05 (E) - AM;-5.0
7100106000130400001;-71.0;W71S06 (E) - AM;-6.0
7100107000159400001;-71.0;W71S07 (E) - AM;-7.0
7100108000175400001;-71.0;W71S08 (E) - AM;-8.0
7100109000200400001;-71.0;W71S09 (E) - AC;-9.0
7200105000100400001;-72.0;W72S05 (E) - AM;-5.0
7200106000194400001;-72.0;W72S06 (E) - AM;-6.0
7200107000200400001;-72.0;W72S07 (E) - AM;-7.0
7200108000200400001;-72.0;W72S08 (E) - AC;-8.0
7200109000302400001;-72.0;W72S09 (E) - AC;-9.0
7300106000202400001;-73.0;W73S06 (E) - AM;-6.0
7300107000201400001;-73.0;W73S07 (E) - AM;-7.0
7300108000200400001;-73.0;W73S08 (E) - AC;-8.0
5241126930889100001;-52.415;XANXERÊ (A) - SC;-26.93861111
4326122580033100001;-43.26666667;XEREM (A) - RJ;-22.58333333
4565103260045000001;-45.65;ZE DOCA (C) - MA;-3.26666667
